{
"type": "FeatureCollection",
"name": "sites_points",
"features": [
{ "type": "Feature", "properties": { "place_id": "ChIJ___Pdfl644kRX5_HPmNdbUE", "file": "community center", "name": "CORCORAN MULLINS JENNISON COMMUNITY BUILDING", "business_status": "OPERATIONAL", "rating": 0.0, "types": "point_of_interest; establishment", "user_ratings_total": 0, "permanently_closed": null, "group": "Community Space", "size": "1000", "cell_id": 111 }, "geometry": { "type": "Point", "coordinates": [ -71.04499460000001, 42.319053899999972 ] } },
{ "type": "Feature", "properties": { "place_id": "ChIJ___vIrFx44kRnB0VCsThMTU", "file": "square", "name": "Bellingham Square Historic District", "business_status": "OPERATIONAL", "rating": 0.0, "types": "point_of_interest; establishment", "user_ratings_total": 0, "permanently_closed": null, "group": "Parks", "size": "1000", "cell_id": 217 }, "geometry": { "type": "Point", "coordinates": [ -71.0332943, 42.392693399999928 ] } },
{ "type": "Feature", "properties": { "place_id": "ChIJ___vKPN544kRlCLe2drofo8", "file": "library", "name": "compassionate librarian", "business_status": "OPERATIONAL", "rating": 0.0, "types": "library; point_of_interest; establishment", "user_ratings_total": 0, "permanently_closed": null, "group": "Community Space", "size": "1000", "cell_id": 123 }, "geometry": { "type": "Point", "coordinates": [ -71.1064572, 42.341761100000028 ] } },
{ "type": "Feature", "properties": { "place_id": "ChIJ___vSQBy44kRzriQrp5RV9g", "file": "place of worship", "name": "Gospel Tabernacle Assembly Of God", "business_status": "OPERATIONAL", "rating": 0.0, "types": "church; place_of_worship; point_of_interest; establishment", "user_ratings_total": 0, "permanently_closed": null, "group": "Places of Worship", "size": "1000", "cell_id": 243 }, "geometry": { "type": "Point", "coordinates": [ -71.0047849, 42.4203642 ] } },
{ "type": "Feature", "properties": { "place_id": "ChIJ__-phBB644kRHe4I-52hNi4", "file": "fountain", "name": "Christian Science Plaza", "business_status": "OPERATIONAL", "rating": 4.4, "types": "parking; tourist_attraction; church; place_of_worship; point_of_interest; establishment", "user_ratings_total": 199, "permanently_closed": null, "group": "Parks", "size": "1000", "cell_id": 143 }, "geometry": { "type": "Point", "coordinates": [ -71.0848929, 42.3441492 ] } },
{ "type": "Feature", "properties": { "place_id": "ChIJ__8_rQx644kRMQad7vbpdO4", "file": "park", "name": "Laz parking", "business_status": "OPERATIONAL", "rating": 5.0, "types": "park; point_of_interest; establishment", "user_ratings_total": 1, "permanently_closed": null, "group": "Parks", "size": "1000", "cell_id": 162 }, "geometry": { "type": "Point", "coordinates": [ -71.0736404, 42.3496811 ] } },
{ "type": "Feature", "properties": { "place_id": "ChIJ__8T1O9744kRz_zeerwUUlU", "file": "community center", "name": "Franklin Field Elderly Community Center", "business_status": "OPERATIONAL", "rating": 0.0, "types": "point_of_interest; establishment", "user_ratings_total": 0, "permanently_closed": null, "group": "Community Space", "size": "1000", "cell_id": 68 }, "geometry": { "type": "Point", "coordinates": [ -71.082763, 42.290188799999967 ] } },
{ "type": "Feature", "properties": { "place_id": "ChIJ__9TDEB444kRlIzlVZF_B-A", "file": "place of worship", "name": "Brighton Worship Cathedral", "business_status": "OPERATIONAL", "rating": 0.0, "types": "church; place_of_worship; point_of_interest; establishment", "user_ratings_total": 0, "permanently_closed": null, "group": "Places of Worship", "size": "1000", "cell_id": 119 }, "geometry": { "type": "Point", "coordinates": [ -71.1673404, 42.351469 ] } },
{ "type": "Feature", "properties": { "place_id": "ChIJ__9zQMp-44kRGxp-ZtQf64w", "file": "bookstore", "name": "Pazzo Books", "business_status": "OPERATIONAL", "rating": 0.0, "types": "book_store; point_of_interest; store; establishment", "user_ratings_total": 0, "permanently_closed": null, "group": "Social Businesses", "size": "1000", "cell_id": 44 }, "geometry": { "type": "Point", "coordinates": [ -71.1226865, 42.2836839 ] } },
{ "type": "Feature", "properties": { "place_id": "ChIJ__brr25644kRcV9N1E6kQzM", "file": "park", "name": "St. Helenas Park", "business_status": "OPERATIONAL", "rating": 4.0, "types": "park; point_of_interest; establishment", "user_ratings_total": 3, "permanently_closed": null, "group": "Parks", "size": "1000", "cell_id": 145 }, "geometry": { "type": "Point", "coordinates": [ -71.066935, 42.340089 ] } },
{ "type": "Feature", "properties": { "place_id": "ChIJ_-NgbUZw44kR1Zk_gm9F_7w", "file": "park", "name": "Bremen Street Community Park", "business_status": "OPERATIONAL", "rating": 4.7, "types": "park; tourist_attraction; point_of_interest; establishment", "user_ratings_total": 538, "permanently_closed": null, "group": "Parks", "size": "1000", "cell_id": 197 }, "geometry": { "type": "Point", "coordinates": [ -71.0309618, 42.375127200000037 ] } },
{ "type": "Feature", "properties": { "place_id": "ChIJ_2PsO3J644kR1-77hCwtMBQ", "file": "square", "name": "Castle Square Community Center", "business_status": "OPERATIONAL", "rating": 1.0, "types": "school; point_of_interest; establishment", "user_ratings_total": 1, "permanently_closed": null, "group": "Parks", "size": "1000", "cell_id": 145 }, "geometry": { "type": "Point", "coordinates": [ -71.0686394, 42.346132200000014 ] } },
{ "type": "Feature", "properties": { "place_id": "ChIJ_4kgfWVy44kRZR9e9ML-tEc", "file": "park", "name": "Anna Parker Playground", "business_status": "OPERATIONAL", "rating": 4.0, "types": "park; point_of_interest; establishment", "user_ratings_total": 62, "permanently_closed": null, "group": "Parks", "size": "1000", "cell_id": 256 }, "geometry": { "type": "Point", "coordinates": [ -71.0159753, 42.4498144 ] } },
{ "type": "Feature", "properties": { "place_id": "ChIJ_5Kdh2Z744kRWpvybZu9I18", "file": "cafe", "name": "Applebee's Grill + Bar", "business_status": "OPERATIONAL", "rating": 3.9, "types": "restaurant; bar; food; point_of_interest; establishment", "user_ratings_total": 960, "permanently_closed": null, "group": "Social Businesses", "size": "1000", "cell_id": 62 }, "geometry": { "type": "Point", "coordinates": [ -71.031311, 42.2787475 ] } },
{ "type": "Feature", "properties": { "place_id": "ChIJ_5tua5h744kRkLP99wYSiDU", "file": "park", "name": "Bynoe Park", "business_status": "OPERATIONAL", "rating": 0.0, "types": "park; point_of_interest; establishment", "user_ratings_total": 0, "permanently_closed": null, "group": "Parks", "size": "1000", "cell_id": 109 }, "geometry": { "type": "Point", "coordinates": [ -71.0766121, 42.3294789 ] } },
{ "type": "Feature", "properties": { "place_id": "ChIJ_5ZLTzRw44kRH0rEYVbwrk4", "file": "square", "name": "Mendoza Square", "business_status": "OPERATIONAL", "rating": 0.0, "types": "park; point_of_interest; establishment", "user_ratings_total": 0, "permanently_closed": null, "group": "Parks", "size": "1000", "cell_id": 208 }, "geometry": { "type": "Point", "coordinates": [ -71.0226568, 42.3803717 ] } },
{ "type": "Feature", "properties": { "place_id": "ChIJ_6-uhW5544kRAIMqmdKrB2E", "file": "bookstore", "name": "Boston Book Company", "business_status": "OPERATIONAL", "rating": 3.6, "types": "book_store; home_goods_store; point_of_interest; store; establishment", "user_ratings_total": 7, "permanently_closed": null, "group": "Social Businesses", "size": "1000", "cell_id": 74 }, "geometry": { "type": "Point", "coordinates": [ -71.114556300000018, 42.311504 ] } },
{ "type": "Feature", "properties": { "place_id": "ChIJ_6VSGIh644kRI--GxPGVvHM", "file": "square", "name": "West Square Apartments", "business_status": "OPERATIONAL", "rating": 3.7, "types": "real_estate_agency; point_of_interest; establishment", "user_ratings_total": 33, "permanently_closed": null, "group": "Parks", "size": "1000", "cell_id": 146 }, "geometry": { "type": "Point", "coordinates": [ -71.049693, 42.340929 ] } },
{ "type": "Feature", "properties": { "place_id": "ChIJ_7QOIDB744kROgJR5gmKX2A", "file": "place of worship", "name": "Ebenezer House Of Worship", "business_status": "OPERATIONAL", "rating": 5.0, "types": "church; place_of_worship; point_of_interest; establishment", "user_ratings_total": 2, "permanently_closed": null, "group": "Places of Worship", "size": "1000", "cell_id": 110 }, "geometry": { "type": "Point", "coordinates": [ -71.060392, 42.326611199999981 ] } },
{ "type": "Feature", "properties": { "place_id": "ChIJ_aCwZ1x_44kR_IK5aEADCn8", "file": "park", "name": "Millennium Park", "business_status": "OPERATIONAL", "rating": 4.7, "types": "tourist_attraction; park; point_of_interest; establishment", "user_ratings_total": 678, "permanently_closed": null, "group": "Parks", "size": "1000", "cell_id": 29 }, "geometry": { "type": "Point", "coordinates": [ -71.1802097, 42.281878699999972 ] } },
{ "type": "Feature", "properties": { "place_id": "ChIJ_bGAUWt644kR2j_5HYlWXOM", "file": "community center", "name": "Blackstone Community Center", "business_status": "OPERATIONAL", "rating": 4.3, "types": "point_of_interest; establishment", "user_ratings_total": 93, "permanently_closed": null, "group": "Community Space", "size": "1000", "cell_id": 144 }, "geometry": { "type": "Point", "coordinates": [ -71.0730184, 42.340521899999978 ] } },
{ "type": "Feature", "properties": { "place_id": "ChIJ_c8AV8N544kRMOqspwMBGu0", "file": "park", "name": "Mellone Park", "business_status": "OPERATIONAL", "rating": 0.0, "types": "park; point_of_interest; establishment", "user_ratings_total": 0, "permanently_closed": null, "group": "Parks", "size": "1000", "cell_id": 158 }, "geometry": { "type": "Point", "coordinates": [ -71.128719600000011, 42.360408199999981 ] } },
{ "type": "Feature", "properties": { "place_id": "ChIJ_dgmSw5544kRQEj1HlGq-x8", "file": "library", "name": "Archbishop Iakovos Library and Learning Resource Center", "business_status": "OPERATIONAL", "rating": 5.0, "types": "library; point_of_interest; establishment", "user_ratings_total": 1, "permanently_closed": null, "group": "Community Space", "size": "1000", "cell_id": 82 }, "geometry": { "type": "Point", "coordinates": [ -71.1290248, 42.3170616 ] } },
{ "type": "Feature", "properties": { "place_id": "ChIJ_fz6HpRw44kRc60n7gmu5tw", "file": "park", "name": "North Point Park", "business_status": "OPERATIONAL", "rating": 4.7, "types": "park; tourist_attraction; point_of_interest; establishment", "user_ratings_total": 519, "permanently_closed": null, "group": "Parks", "size": "1000", "cell_id": 183 }, "geometry": { "type": "Point", "coordinates": [ -71.0690224, 42.369016 ] } },
{ "type": "Feature", "properties": { "place_id": "ChIJ_Qt69Px544kR9sYP5zl1kw4", "file": "park", "name": "Fulmore Park", "business_status": "OPERATIONAL", "rating": 4.4, "types": "park; tourist_attraction; point_of_interest; establishment", "user_ratings_total": 35, "permanently_closed": null, "group": "Parks", "size": "1000", "cell_id": 159 }, "geometry": { "type": "Point", "coordinates": [ -71.1065087, 42.357217299999974 ] } },
{ "type": "Feature", "properties": { "place_id": "ChIJ_RhI30V-44kRUJexAFaHAVc", "file": "place of worship", "name": "Iglesia De Dios Pentecostal", "business_status": "OPERATIONAL", "rating": 0.0, "types": "church; place_of_worship; point_of_interest; establishment", "user_ratings_total": 0, "permanently_closed": null, "group": "Places of Worship", "size": "1000", "cell_id": 2 }, "geometry": { "type": "Point", "coordinates": [ -71.130846, 42.236407900000017 ] } },
{ "type": "Feature", "properties": { "place_id": "ChIJ_Wc5DKt744kRAkfkoOsB9ug", "file": "cafe", "name": "Honeycomb Cafe", "business_status": "OPERATIONAL", "rating": 4.7, "types": "cafe; food; point_of_interest; establishment", "user_ratings_total": 99, "permanently_closed": null, "group": "Social Businesses", "size": "1000", "cell_id": 99 }, "geometry": { "type": "Point", "coordinates": [ -71.053935, 42.311579199999969 ] } },
{ "type": "Feature", "properties": { "place_id": "ChIJ_WycZmB344kRXdSXbhRWBog", "file": "bookstore", "name": "Harvard Coop", "business_status": "OPERATIONAL", "rating": 3.9, "types": "book_store; point_of_interest; store; establishment", "user_ratings_total": 9, "permanently_closed": null, "group": "Social Businesses", "size": "1000", "cell_id": 158 }, "geometry": { "type": "Point", "coordinates": [ -71.1222186, 42.365215 ] } },
{ "type": "Feature", "properties": { "place_id": "ChIJ_x46x_V-44kRT9vl9bO_t0g", "file": "cafe", "name": "Cavan Cafe", "business_status": "OPERATIONAL", "rating": 4.2, "types": "bar; restaurant; food; point_of_interest; establishment", "user_ratings_total": 92, "permanently_closed": null, "group": "Social Businesses", "size": "1000", "cell_id": 10 }, "geometry": { "type": "Point", "coordinates": [ -71.125748, 42.250595500000017 ] } },
{ "type": "Feature", "properties": { "place_id": "ChIJ_xxf1Hl644kRq0JShChNG00", "file": "bookstore", "name": "Tufts University Health Sciences Bookstore", "business_status": "CLOSED_TEMPORARILY", "rating": 4.3, "types": "book_store; point_of_interest; store; establishment", "user_ratings_total": 14, "permanently_closed": true, "group": "Social Businesses", "size": "1000", "cell_id": 163 }, "geometry": { "type": "Point", "coordinates": [ -71.0614297, 42.350386400000019 ] } },
{ "type": "Feature", "properties": { "place_id": "ChIJ_y5MsX9544kRKH8QbAcrWg8", "file": "city hall", "name": "City of Boston", "business_status": "OPERATIONAL", "rating": 0.0, "types": "local_government_office; point_of_interest; establishment", "user_ratings_total": 0, "permanently_closed": null, "group": "Community Space", "size": "1000", "cell_id": 95 }, "geometry": { "type": "Point", "coordinates": [ -71.099870600000017, 42.319272399999981 ] } },
{ "type": "Feature", "properties": { "place_id": "ChIJ_yTpjkN544kRUPb35E7CcnM", "file": "cafe", "name": "Brassica Kitchen + Cafe", "business_status": "OPERATIONAL", "rating": 4.7, "types": "cafe; restaurant; food; point_of_interest; establishment", "user_ratings_total": 679, "permanently_closed": null, "group": "Social Businesses", "size": "1000", "cell_id": 66 }, "geometry": { "type": "Point", "coordinates": [ -71.113075, 42.300249 ] } },
{ "type": "Feature", "properties": { "place_id": "ChIJ--vZXiR744kRFdOseyDqnUs", "file": "cafe", "name": "Dulce Bakery & Cafe", "business_status": "OPERATIONAL", "rating": 4.2, "types": "bakery; food; point_of_interest; store; establishment", "user_ratings_total": 5, "permanently_closed": null, "group": "Social Businesses", "size": "1000", "cell_id": 58 }, "geometry": { "type": "Point", "coordinates": [ -71.0914521, 42.285214300000028 ] } },
{ "type": "Feature", "properties": { "place_id": "ChIJ--xP4Nt-44kRx2m9zG2Vgo8", "file": "cafe", "name": "Dunkin'", "business_status": "OPERATIONAL", "rating": 3.5, "types": "bakery; meal_takeaway; cafe; restaurant; food; point_of_interest; store; establishment", "user_ratings_total": 159, "permanently_closed": null, "group": "Social Businesses", "size": "1000", "cell_id": 32 }, "geometry": { "type": "Point", "coordinates": [ -71.1395541, 42.2752109 ] } },
{ "type": "Feature", "properties": { "place_id": "ChIJ-0L2b8d744kREY0Vanhiv10", "file": "garden", "name": "Zawadzkaski Enterprise", "business_status": "OPERATIONAL", "rating": 0.0, "types": "point_of_interest; store; establishment", "user_ratings_total": 0, "permanently_closed": null, "group": "Parks", "size": "1000", "cell_id": 163 }, "geometry": { "type": "Point", "coordinates": [ -71.0618414, 42.351328100000053 ] } },
{ "type": "Feature", "properties": { "place_id": "ChIJ-2pJoUZ744kRUnWui_bo88E", "file": "park", "name": "Neponset Trail Parking", "business_status": "OPERATIONAL", "rating": 0.0, "types": "park; point_of_interest; establishment", "user_ratings_total": 0, "permanently_closed": null, "group": "Parks", "size": "1000", "cell_id": 71 }, "geometry": { "type": "Point", "coordinates": [ -71.0430578, 42.283939700000026 ] } },
{ "type": "Feature", "properties": { "place_id": "ChIJ-71qiKpw44kRs5OlKwNzal0", "file": "library", "name": "Mit Science Fiction Soc Library", "business_status": "OPERATIONAL", "rating": 4.0, "types": "library; point_of_interest; establishment", "user_ratings_total": 2, "permanently_closed": null, "group": "Community Space", "size": "1000", "cell_id": 160 }, "geometry": { "type": "Point", "coordinates": [ -71.0947758, 42.359040800000031 ] } },
{ "type": "Feature", "properties": { "place_id": "ChIJ-7nQEfh544kRPEaV-Bl0gCk", "file": "place of worship", "name": "Ramakrishna Vedanta Society", "business_status": "OPERATIONAL", "rating": 4.0, "types": "place_of_worship; point_of_interest; establishment", "user_ratings_total": 27, "permanently_closed": null, "group": "Places of Worship", "size": "1000", "cell_id": 142 }, "geometry": { "type": "Point", "coordinates": [ -71.0979838, 42.3505187 ] } },
{ "type": "Feature", "properties": { "place_id": "ChIJ-8WlCKp744kRY_hQjh0Sfyw", "file": "park", "name": "Laviscount Park", "business_status": "OPERATIONAL", "rating": 0.0, "types": "park; point_of_interest; establishment", "user_ratings_total": 0, "permanently_closed": null, "group": "Parks", "size": "1000", "cell_id": 96 }, "geometry": { "type": "Point", "coordinates": [ -71.086222, 42.316663500000011 ] } },
{ "type": "Feature", "properties": { "place_id": "ChIJ-9DYV35_44kRqZ1D7UA0R8M", "file": "square", "name": "Duffie Square", "business_status": "OPERATIONAL", "rating": 0.0, "types": "park; point_of_interest; establishment", "user_ratings_total": 0, "permanently_closed": null, "group": "Parks", "size": "1000", "cell_id": 42 }, "geometry": { "type": "Point", "coordinates": [ -71.1528041, 42.2848403 ] } },
{ "type": "Feature", "properties": { "place_id": "ChIJ-9l4dV1444kRSEEieDOHe9k", "file": "cafe", "name": "Dunkin'", "business_status": "OPERATIONAL", "rating": 3.2, "types": "bakery; meal_takeaway; cafe; restaurant; food; point_of_interest; store; establishment", "user_ratings_total": 87, "permanently_closed": null, "group": "Social Businesses", "size": "1000", "cell_id": 103 }, "geometry": { "type": "Point", "coordinates": [ -71.1673352, 42.340062399999987 ] } },
{ "type": "Feature", "properties": { "place_id": "ChIJ-fogI8l544kRIfbrDvMwpww", "file": "park", "name": "Ringer Park", "business_status": "OPERATIONAL", "rating": 4.3, "types": "park; tourist_attraction; point_of_interest; establishment", "user_ratings_total": 153, "permanently_closed": null, "group": "Parks", "size": "1000", "cell_id": 121 }, "geometry": { "type": "Point", "coordinates": [ -71.1374348, 42.350480700000034 ] } },
{ "type": "Feature", "properties": { "place_id": "ChIJ-wsR639w44kR9hGgccJwbUE", "file": "place of worship", "name": "Church of the Larger Fellowship", "business_status": "OPERATIONAL", "rating": 0.0, "types": "church; place_of_worship; point_of_interest; establishment", "user_ratings_total": 0, "permanently_closed": null, "group": "Places of Worship", "size": "1000", "cell_id": 164 }, "geometry": { "type": "Point", "coordinates": [ -71.0484174, 42.351632800000012 ] } },
{ "type": "Feature", "properties": { "place_id": "ChIJ-Zi0evl744kROEamEp4xKCU", "file": "place of worship", "name": "Temple Salem Seventh-day Adventist Church", "business_status": "OPERATIONAL", "rating": 4.8, "types": "church; place_of_worship; point_of_interest; establishment", "user_ratings_total": 34, "permanently_closed": null, "group": "Places of Worship", "size": "1000", "cell_id": 58 }, "geometry": { "type": "Point", "coordinates": [ -71.0891559, 42.285667400000015 ] } },
{ "type": "Feature", "properties": { "place_id": "ChIJ0_hQYW5_44kRq9T0VFmw5fY", "file": "place of worship", "name": "Calvary Baptist Church", "business_status": "OPERATIONAL", "rating": 5.0, "types": "church; place_of_worship; point_of_interest; establishment", "user_ratings_total": 7, "permanently_closed": null, "group": "Places of Worship", "size": "1000", "cell_id": 13 }, "geometry": { "type": "Point", "coordinates": [ -71.17569, 42.269711 ] } },
{ "type": "Feature", "properties": { "place_id": "ChIJ00r2Naht44kRnr7v703vtwk", "file": "fountain", "name": "Walmart", "business_status": "OPERATIONAL", "rating": 4.1, "types": "department_store; hardware_store; grocery_or_supermarket; electronics_store; furniture_store; home_goods_store; food; point_of_interest; clothing_store; store; establishment", "user_ratings_total": 4299, "permanently_closed": null, "group": "Parks", "size": "1000", "cell_id": 260 }, "geometry": { "type": "Point", "coordinates": [ -70.9608099, 42.448794099999958 ] } },
{ "type": "Feature", "properties": { "place_id": "ChIJ00VXuhh644kRDeAeSumTqjs", "file": "library", "name": "Northeastern University Law Library", "business_status": "OPERATIONAL", "rating": 0.0, "types": "library; point_of_interest; establishment", "user_ratings_total": 0, "permanently_closed": null, "group": "Community Space", "size": "1000", "cell_id": 124 }, "geometry": { "type": "Point", "coordinates": [ -71.0909119, 42.3392105 ] } },
{ "type": "Feature", "properties": { "place_id": "ChIJ04n6DWx544kRD9z7yYru7Ps", "file": "place of worship", "name": "Unitarian Church in Jamaica Plain", "business_status": "OPERATIONAL", "rating": 0.0, "types": "church; place_of_worship; point_of_interest; establishment", "user_ratings_total": 0, "permanently_closed": null, "group": "Places of Worship", "size": "1000", "cell_id": 74 }, "geometry": { "type": "Point", "coordinates": [ -71.1155377, 42.310008 ] } },
{ "type": "Feature", "properties": { "place_id": "ChIJ07P8sH5w44kRHdgp-xTr6zc", "file": "square", "name": "Seaport Square", "business_status": null, "rating": null, "types": "town_square", "user_ratings_total": null, "permanently_closed": null, "group": "Parks", "size": "1000", "cell_id": 176 }, "geometry": { "type": "Point", "coordinates": [ -71.0444106, 42.353931099999983 ] } },
{ "type": "Feature", "properties": { "place_id": "ChIJ08REdV1444kR2NIih49hLqE", "file": "cafe", "name": "Flat Breads Cafe", "business_status": "OPERATIONAL", "rating": 4.5, "types": "restaurant; food; point_of_interest; establishment", "user_ratings_total": 48, "permanently_closed": null, "group": "Social Businesses", "size": "1000", "cell_id": 103 }, "geometry": { "type": "Point", "coordinates": [ -71.1672587, 42.3400627 ] } },
{ "type": "Feature", "properties": { "place_id": "ChIJ09A5bAx644kRWzxlbZ7Kn3A", "file": "place of worship", "name": "SoundTreks", "business_status": "OPERATIONAL", "rating": 0.0, "types": "church; place_of_worship; point_of_interest; establishment", "user_ratings_total": 0, "permanently_closed": null, "group": "Places of Worship", "size": "1000", "cell_id": 162 }, "geometry": { "type": "Point", "coordinates": [ -71.0780253, 42.350228199999975 ] } },
{ "type": "Feature", "properties": { "place_id": "ChIJ09zF5x1644kRN5cexs-_bUo", "file": "community center", "name": "Fenway Community Center", "business_status": "OPERATIONAL", "rating": 4.6, "types": "point_of_interest; establishment", "user_ratings_total": 18, "permanently_closed": null, "group": "Community Space", "size": "1000", "cell_id": 123 }, "geometry": { "type": "Point", "coordinates": [ -71.0975423, 42.344312 ] } },
{ "type": "Feature", "properties": { "place_id": "ChIJ0a7v0hV644kRTJinJld-Hkk", "file": "place of worship", "name": "Ebenezer Baptist Church", "business_status": "OPERATIONAL", "rating": 4.6, "types": "church; place_of_worship; point_of_interest; establishment", "user_ratings_total": 13, "permanently_closed": null, "group": "Places of Worship", "size": "1000", "cell_id": 125 }, "geometry": { "type": "Point", "coordinates": [ -71.0786111, 42.339166700000035 ] } },
{ "type": "Feature", "properties": { "place_id": "ChIJ0as4tpB744kR9Qmf4JddnD4", "file": "cafe", "name": "Zia Gianna - Italian Bakery & Caffè", "business_status": "OPERATIONAL", "rating": 4.7, "types": "meal_takeaway; cafe; restaurant; food; point_of_interest; store; establishment", "user_ratings_total": 193, "permanently_closed": null, "group": "Social Businesses", "size": "1000", "cell_id": 70 }, "geometry": { "type": "Point", "coordinates": [ -71.063065, 42.290943 ] } },
{ "type": "Feature", "properties": { "place_id": "ChIJ0bzIE_t744kRaXPCWjjROF8", "file": "place of worship", "name": "Church of God Valley of Blessings", "business_status": "OPERATIONAL", "rating": 4.2, "types": "church; place_of_worship; point_of_interest; establishment", "user_ratings_total": 13, "permanently_closed": null, "group": "Places of Worship", "size": "1000", "cell_id": 58 }, "geometry": { "type": "Point", "coordinates": [ -71.0894006, 42.289664 ] } },
{ "type": "Feature", "properties": { "place_id": "ChIJ0flQrEJw44kR9Fbr-19M160", "file": "place of worship", "name": "Church @ The Well", "business_status": "OPERATIONAL", "rating": 5.0, "types": "church; place_of_worship; point_of_interest; establishment", "user_ratings_total": 7, "permanently_closed": null, "group": "Places of Worship", "size": "1000", "cell_id": 185 }, "geometry": { "type": "Point", "coordinates": [ -71.0376712, 42.368223 ] } },
{ "type": "Feature", "properties": { "place_id": "ChIJ0QE1azF444kRKOoiwS2CSHE", "file": "community center", "name": "Faneuil Gardens", "business_status": "CLOSED_TEMPORARILY", "rating": 3.3, "types": "point_of_interest; establishment", "user_ratings_total": 10, "permanently_closed": true, "group": "Community Space", "size": "1000", "cell_id": 138 }, "geometry": { "type": "Point", "coordinates": [ -71.1522594, 42.356018799999973 ] } },
{ "type": "Feature", "properties": { "place_id": "ChIJ0SckFvx544kR9w0ElJTH29I", "file": "park", "name": "Fort Washington Park", "business_status": "OPERATIONAL", "rating": 4.2, "types": "park; tourist_attraction; point_of_interest; establishment", "user_ratings_total": 45, "permanently_closed": null, "group": "Parks", "size": "1000", "cell_id": 160 }, "geometry": { "type": "Point", "coordinates": [ -71.1041876, 42.3564506 ] } },
{ "type": "Feature", "properties": { "place_id": "ChIJ0Tz_MYpw44kRZIZVItV2ff0", "file": "place of worship", "name": "Boston Harbor Community Church", "business_status": "OPERATIONAL", "rating": 4.3, "types": "church; place_of_worship; point_of_interest; establishment", "user_ratings_total": 7, "permanently_closed": null, "group": "Places of Worship", "size": "1000", "cell_id": 184 }, "geometry": { "type": "Point", "coordinates": [ -71.0525213, 42.365964200000029 ] } },
{ "type": "Feature", "properties": { "place_id": "ChIJ0WG99nd544kRnkpCSzyJGuw", "file": "cafe", "name": "The VU", "business_status": "OPERATIONAL", "rating": 4.8, "types": "cafe; electronics_store; home_goods_store; food; point_of_interest; store; establishment", "user_ratings_total": 86, "permanently_closed": null, "group": "Social Businesses", "size": "1000", "cell_id": 84 }, "geometry": { "type": "Point", "coordinates": [ -71.1018095, 42.312467399999981 ] } },
{ "type": "Feature", "properties": { "place_id": "ChIJ0xBPAmx544kR5AhgFF0XVqQ", "file": "cafe", "name": "Espresso Yourself", "business_status": "OPERATIONAL", "rating": 4.7, "types": "cafe; food; point_of_interest; store; establishment", "user_ratings_total": 154, "permanently_closed": null, "group": "Social Businesses", "size": "1000", "cell_id": 74 }, "geometry": { "type": "Point", "coordinates": [ -71.1153277, 42.31013 ] } },
{ "type": "Feature", "properties": { "place_id": "ChIJ0xFocoJ544kRVZj3u6q28YQ", "file": "square", "name": "Codman Square Market", "business_status": "OPERATIONAL", "rating": 3.0, "types": "grocery_or_supermarket; food; point_of_interest; store; establishment", "user_ratings_total": 1, "permanently_closed": null, "group": "Parks", "size": "1000", "cell_id": 95 }, "geometry": { "type": "Point", "coordinates": [ -71.104941100000019, 42.3228162 ] } },
{ "type": "Feature", "properties": { "place_id": "ChIJ0XzqcQ1644kR4qBH0rsFeP4", "file": "community center", "name": "TENT CITY COMMUNITY ROOM", "business_status": "OPERATIONAL", "rating": 0.0, "types": "point_of_interest; establishment", "user_ratings_total": 0, "permanently_closed": null, "group": "Community Space", "size": "1000", "cell_id": 144 }, "geometry": { "type": "Point", "coordinates": [ -71.0758564, 42.346646 ] } },
{ "type": "Feature", "properties": { "place_id": "ChIJ0YJmk4Rw44kRz4BSTcjFvzw", "file": "bookstore", "name": "St. Francis Chapel Gift Shop and Bookstore", "business_status": "OPERATIONAL", "rating": 4.8, "types": "book_store; point_of_interest; store; establishment", "user_ratings_total": 6, "permanently_closed": null, "group": "Social Businesses", "size": "1000", "cell_id": 144 }, "geometry": { "type": "Point", "coordinates": [ -71.082246700000013, 42.348522399999986 ] } },
{ "type": "Feature", "properties": { "place_id": "ChIJ0YLi6H1544kR5Wmc2jZNyTY", "file": "square", "name": "Bluebikes Station: Egleston Square", "business_status": "OPERATIONAL", "rating": 4.0, "types": "point_of_interest; establishment", "user_ratings_total": 1, "permanently_closed": null, "group": "Parks", "size": "1000", "cell_id": 84 }, "geometry": { "type": "Point", "coordinates": [ -71.0985616, 42.315680500000028 ] } },
{ "type": "Feature", "properties": { "place_id": "ChIJ1_kTYImB44kRYGIHvdVxKWc", "file": "garden", "name": "The Boston Flower & Garden Show", "business_status": "CLOSED_TEMPORARILY", "rating": 3.5, "types": "point_of_interest; establishment", "user_ratings_total": 109, "permanently_closed": true, "group": "Parks", "size": "1000", "cell_id": 165 }, "geometry": { "type": "Point", "coordinates": [ -71.0404837, 42.3513885 ] } },
{ "type": "Feature", "properties": { "place_id": "ChIJ11bPB3h844kR39cHomioD6o", "file": "park", "name": "Dorchester Park, Adams Street entrance", "business_status": "OPERATIONAL", "rating": 5.0, "types": "park; point_of_interest; establishment", "user_ratings_total": 8, "permanently_closed": null, "group": "Parks", "size": "1000", "cell_id": 49 }, "geometry": { "type": "Point", "coordinates": [ -71.06097, 42.276931 ] } },
{ "type": "Feature", "properties": { "place_id": "ChIJ11K8pklw44kRpw9E6_iIL_g", "file": "square", "name": "Day Square Liquors", "business_status": "OPERATIONAL", "rating": 4.0, "types": "liquor_store; point_of_interest; store; establishment", "user_ratings_total": 31, "permanently_closed": null, "group": "Parks", "size": "1000", "cell_id": 208 }, "geometry": { "type": "Point", "coordinates": [ -71.0286431, 42.378939299999963 ] } },
{ "type": "Feature", "properties": { "place_id": "ChIJ12uCYjJ444kR6ePTLi-3K9E", "file": "cafe", "name": "Brighton Landing Cafe", "business_status": "OPERATIONAL", "rating": 3.3, "types": "cafe; food; point_of_interest; establishment", "user_ratings_total": 7, "permanently_closed": null, "group": "Social Businesses", "size": "1000", "cell_id": 138 }, "geometry": { "type": "Point", "coordinates": [ -71.1465225, 42.357673600000041 ] } },
{ "type": "Feature", "properties": { "place_id": "ChIJ12YN9rF744kRjVLD6tnqM6g", "file": "square", "name": "Kane's Square Physical Therapy", "business_status": "OPERATIONAL", "rating": 1.0, "types": "physiotherapist; health; point_of_interest; establishment", "user_ratings_total": 1, "permanently_closed": null, "group": "Parks", "size": "1000", "cell_id": 87 }, "geometry": { "type": "Point", "coordinates": [ -71.0618837, 42.310507800000018 ] } },
{ "type": "Feature", "properties": { "place_id": "ChIJ13PMghR644kR1suy8PkVBgA", "file": "place of worship", "name": "Reality Church Boston", "business_status": "OPERATIONAL", "rating": 4.8, "types": "church; place_of_worship; point_of_interest; establishment", "user_ratings_total": 17, "permanently_closed": null, "group": "Places of Worship", "size": "1000", "cell_id": 162 }, "geometry": { "type": "Point", "coordinates": [ -71.072386900000012, 42.352622500000024 ] } },
{ "type": "Feature", "properties": { "place_id": "ChIJ13U_NIB744kRoYAgM1j4m_A", "file": "park", "name": "Elmhurst Street Park", "business_status": "OPERATIONAL", "rating": 0.0, "types": "park; point_of_interest; establishment", "user_ratings_total": 0, "permanently_closed": null, "group": "Parks", "size": "1000", "cell_id": 69 }, "geometry": { "type": "Point", "coordinates": [ -71.0764355, 42.289278600000046 ] } },
{ "type": "Feature", "properties": { "place_id": "ChIJ13zX34h544kRz4a7IctnVAk", "file": "square", "name": "Franklin Square House Day Care", "business_status": "OPERATIONAL", "rating": 5.0, "types": "point_of_interest; establishment", "user_ratings_total": 1, "permanently_closed": null, "group": "Parks", "size": "1000", "cell_id": 107 }, "geometry": { "type": "Point", "coordinates": [ -71.1015679, 42.333334099999973 ] } },
{ "type": "Feature", "properties": { "place_id": "ChIJ16fsdcB-44kR_Ask01RaEeg", "file": "place of worship", "name": "True Vine Evangel Ministries", "business_status": "OPERATIONAL", "rating": 0.0, "types": "church; place_of_worship; point_of_interest; establishment", "user_ratings_total": 0, "permanently_closed": null, "group": "Places of Worship", "size": "1000", "cell_id": 25 }, "geometry": { "type": "Point", "coordinates": [ -71.121498500000015, 42.2695278 ] } },
{ "type": "Feature", "properties": { "place_id": "ChIJ18-RbXxx44kRwR0Drjtivf0", "file": "place of worship", "name": "Nueva Vida UMC", "business_status": "OPERATIONAL", "rating": 0.0, "types": "church; place_of_worship; point_of_interest; establishment", "user_ratings_total": 0, "permanently_closed": null, "group": "Places of Worship", "size": "1000", "cell_id": 217 }, "geometry": { "type": "Point", "coordinates": [ -71.0330209, 42.392584699999986 ] } },
{ "type": "Feature", "properties": { "place_id": "ChIJ19iRyEd744kR_G3lKNUHSuw", "file": "park", "name": "Thomas J Butler Memorial Park", "business_status": "OPERATIONAL", "rating": 4.3, "types": "tourist_attraction; park; point_of_interest; establishment", "user_ratings_total": 16, "permanently_closed": null, "group": "Parks", "size": "1000", "cell_id": 148 }, "geometry": { "type": "Point", "coordinates": [ -71.0273629, 42.338488100000021 ] } },
{ "type": "Feature", "properties": { "place_id": "ChIJ19uRLcF744kROo3b2kvk1xE", "file": "cafe", "name": "Cornerstone Pizza Cafe", "business_status": "OPERATIONAL", "rating": 4.0, "types": "restaurant; food; point_of_interest; establishment", "user_ratings_total": 52, "permanently_closed": null, "group": "Social Businesses", "size": "1000", "cell_id": 78 }, "geometry": { "type": "Point", "coordinates": [ -71.073206, 42.299411100000015 ] } },
{ "type": "Feature", "properties": { "place_id": "ChIJ1aWE6fN-44kRPaiWIi9isHU", "file": "park", "name": "Schempa Square", "business_status": "OPERATIONAL", "rating": 0.0, "types": "park; point_of_interest; establishment", "user_ratings_total": 0, "permanently_closed": null, "group": "Parks", "size": "1000", "cell_id": 17 }, "geometry": { "type": "Point", "coordinates": [ -71.1259555, 42.255532799999969 ] } },
{ "type": "Feature", "properties": { "place_id": "ChIJ1ayWUz5644kR0Ej-t8P0-Ak", "file": "place of worship", "name": "Congregación León de Judá", "business_status": "OPERATIONAL", "rating": 4.9, "types": "church; place_of_worship; point_of_interest; establishment", "user_ratings_total": 79, "permanently_closed": null, "group": "Places of Worship", "size": "1000", "cell_id": 125 }, "geometry": { "type": "Point", "coordinates": [ -71.076772, 42.334454 ] } },
{ "type": "Feature", "properties": { "place_id": "ChIJ1cJicDl644kRsUY8rw7dQ2s", "file": "place of worship", "name": "Bahai Centre", "business_status": "OPERATIONAL", "rating": 0.0, "types": "place_of_worship; point_of_interest; establishment", "user_ratings_total": 0, "permanently_closed": null, "group": "Places of Worship", "size": "1000", "cell_id": 108 }, "geometry": { "type": "Point", "coordinates": [ -71.0786957, 42.3301285 ] } },
{ "type": "Feature", "properties": { "place_id": "ChIJ1dP4IYJ544kRmf1YveWVTX0", "file": "cafe", "name": "Dunkin'", "business_status": "OPERATIONAL", "rating": 4.0, "types": "bakery; meal_takeaway; cafe; restaurant; food; point_of_interest; store; establishment", "user_ratings_total": 259, "permanently_closed": null, "group": "Social Businesses", "size": "1000", "cell_id": 95 }, "geometry": { "type": "Point", "coordinates": [ -71.103819200000018, 42.323069500000024 ] } },
{ "type": "Feature", "properties": { "place_id": "ChIJ1eG6vYZw44kR80aWJRTe40w", "file": "square", "name": "One Liberty Square", "business_status": "OPERATIONAL", "rating": 4.7, "types": "point_of_interest; establishment", "user_ratings_total": 6, "permanently_closed": null, "group": "Parks", "size": "1000", "cell_id": 175 }, "geometry": { "type": "Point", "coordinates": [ -71.0547381, 42.357560599999957 ] } },
{ "type": "Feature", "properties": { "place_id": "ChIJ1ek-341544kRUvGptaZNMlE", "file": "place of worship", "name": "Church Kendra L", "business_status": "OPERATIONAL", "rating": 0.0, "types": "church; place_of_worship; point_of_interest; establishment", "user_ratings_total": 0, "permanently_closed": null, "group": "Places of Worship", "size": "1000", "cell_id": 106 }, "geometry": { "type": "Point", "coordinates": [ -71.1073274, 42.337688899999975 ] } },
{ "type": "Feature", "properties": { "place_id": "ChIJ1eUE7kB444kRqOXAm2mMLiw", "file": "square", "name": "Washington St @ Oak Square Ave", "business_status": "OPERATIONAL", "rating": 0.0, "types": "transit_station; point_of_interest; establishment", "user_ratings_total": 0, "permanently_closed": null, "group": "Parks", "size": "1000", "cell_id": 119 }, "geometry": { "type": "Point", "coordinates": [ -71.164524, 42.349897 ] } },
{ "type": "Feature", "properties": { "place_id": "ChIJ1QWu0bqc44kRCuBNiE9_B2g", "file": "square", "name": "Square 1 Bank", "business_status": "OPERATIONAL", "rating": 0.0, "types": "bank; finance; point_of_interest; establishment", "user_ratings_total": 0, "permanently_closed": null, "group": "Parks", "size": "1000", "cell_id": 176 }, "geometry": { "type": "Point", "coordinates": [ -71.0525425, 42.355233499999976 ] } },
{ "type": "Feature", "properties": { "place_id": "ChIJ1SAkZgZy44kRKmfUE4eJHcA", "file": "city hall", "name": "Public Works Department-City Yard", "business_status": "OPERATIONAL", "rating": 2.7, "types": "local_government_office; point_of_interest; establishment", "user_ratings_total": 3, "permanently_closed": null, "group": "Community Space", "size": "1000", "cell_id": 248 }, "geometry": { "type": "Point", "coordinates": [ -71.0065525, 42.4264581 ] } },
{ "type": "Feature", "properties": { "place_id": "ChIJ1SGhSzhu44kRsBUjpqubgQM", "file": "park", "name": "Winthrop Highlands", "business_status": "OPERATIONAL", "rating": 4.5, "types": "park; point_of_interest; establishment", "user_ratings_total": 14, "permanently_closed": null, "group": "Parks", "size": "1000", "cell_id": 228 }, "geometry": { "type": "Point", "coordinates": [ -70.975018, 42.3878711 ] } },
{ "type": "Feature", "properties": { "place_id": "ChIJ1TQzQmx-44kR94RGixjcjkA", "file": "library", "name": "Louis R Levin Memorial Library", "business_status": "OPERATIONAL", "rating": 5.0, "types": "library; point_of_interest; establishment", "user_ratings_total": 1, "permanently_closed": null, "group": "Community Space", "size": "1000", "cell_id": 6 }, "geometry": { "type": "Point", "coordinates": [ -71.1148112, 42.240676300000018 ] } },
{ "type": "Feature", "properties": { "place_id": "ChIJ1TQzQmx-44kRAdlkn_yqApM", "file": "bookstore", "name": "Curry College Bookstore", "business_status": "OPERATIONAL", "rating": 4.3, "types": "book_store; point_of_interest; store; establishment", "user_ratings_total": 22, "permanently_closed": null, "group": "Social Businesses", "size": "1000", "cell_id": 6 }, "geometry": { "type": "Point", "coordinates": [ -71.116311, 42.238228700000036 ] } },
{ "type": "Feature", "properties": { "place_id": "ChIJ1U2AlMV744kRTPWr9S357J4", "file": "library", "name": "Grove Hall Branch of the Boston Public Library", "business_status": "OPERATIONAL", "rating": 4.3, "types": "library; point_of_interest; establishment", "user_ratings_total": 24, "permanently_closed": null, "group": "Community Space", "size": "1000", "cell_id": 86 }, "geometry": { "type": "Point", "coordinates": [ -71.0811414, 42.3079636 ] } },
{ "type": "Feature", "properties": { "place_id": "ChIJ1V_7Gppw44kRC_Em1X6ZuiE", "file": "library", "name": "Treadwell Virtual Library", "business_status": "OPERATIONAL", "rating": 0.0, "types": "library; point_of_interest; establishment", "user_ratings_total": 0, "permanently_closed": null, "group": "Community Space", "size": "1000", "cell_id": 183 }, "geometry": { "type": "Point", "coordinates": [ -71.064953, 42.367875 ] } },
{ "type": "Feature", "properties": { "place_id": "ChIJ1V9r5Gt544kRbPz0Fv97N6I", "file": "community center", "name": "Curtis Hall Community Center", "business_status": "OPERATIONAL", "rating": 4.5, "types": "point_of_interest; establishment", "user_ratings_total": 151, "permanently_closed": null, "group": "Community Space", "size": "1000", "cell_id": 74 }, "geometry": { "type": "Point", "coordinates": [ -71.1151372, 42.3088585 ] } },
{ "type": "Feature", "properties": { "place_id": "ChIJ1V9r5Gt544kRutxQkmcdj0o", "file": "city hall", "name": "Jamaica Plain Regional Office", "business_status": "OPERATIONAL", "rating": 2.5, "types": "local_government_office; point_of_interest; establishment", "user_ratings_total": 2, "permanently_closed": null, "group": "Community Space", "size": "1000", "cell_id": 74 }, "geometry": { "type": "Point", "coordinates": [ -71.1151173, 42.3089609 ] } },
{ "type": "Feature", "properties": { "place_id": "ChIJ1Vwx1sd744kRi05xSF0AhZ0", "file": "place of worship", "name": "Deliverence Temple Church of God", "business_status": "OPERATIONAL", "rating": 4.5, "types": "church; place_of_worship; point_of_interest; establishment", "user_ratings_total": 16, "permanently_closed": null, "group": "Places of Worship", "size": "1000", "cell_id": 86 }, "geometry": { "type": "Point", "coordinates": [ -71.0760583, 42.307736499999962 ] } },
{ "type": "Feature", "properties": { "place_id": "ChIJ1w2cYch544kRrK1WL2NCWrc", "file": "cafe", "name": "Starbucks", "business_status": "OPERATIONAL", "rating": 4.3, "types": "cafe; restaurant; food; point_of_interest; store; establishment", "user_ratings_total": 305, "permanently_closed": null, "group": "Social Businesses", "size": "1000", "cell_id": 122 }, "geometry": { "type": "Point", "coordinates": [ -71.134132, 42.348466 ] } },
{ "type": "Feature", "properties": { "place_id": "ChIJ1wEQt49w44kRCsnNGXzFMJM", "file": "fountain", "name": "Concord Fountain", "business_status": "OPERATIONAL", "rating": 0.0, "types": "point_of_interest; establishment", "user_ratings_total": 0, "permanently_closed": null, "group": "Parks", "size": "1000", "cell_id": 175 }, "geometry": { "type": "Point", "coordinates": [ -71.0599445, 42.364007499999971 ] } },
{ "type": "Feature", "properties": { "place_id": "ChIJ1wHpdMB744kRVVQmi-NZE3s", "file": "place of worship", "name": "Church of God, Bethel of Boston", "business_status": "OPERATIONAL", "rating": 5.0, "types": "church; place_of_worship; point_of_interest; establishment", "user_ratings_total": 1, "permanently_closed": null, "group": "Places of Worship", "size": "1000", "cell_id": 78 }, "geometry": { "type": "Point", "coordinates": [ -71.0737787, 42.299204299999957 ] } },
{ "type": "Feature", "properties": { "place_id": "ChIJ1WMm5Ht544kRGRcXu97_2vM", "file": "park", "name": "Stony Brook Park", "business_status": "OPERATIONAL", "rating": 4.6, "types": "park; tourist_attraction; point_of_interest; establishment", "user_ratings_total": 22, "permanently_closed": null, "group": "Parks", "size": "1000", "cell_id": 16 }, "geometry": { "type": "Point", "coordinates": [ -71.136388700000012, 42.261533600000021 ] } },
{ "type": "Feature", "properties": { "place_id": "ChIJ1WobzDx744kRUCGZk-9lrn8", "file": "park", "name": "Elm Hill Park", "business_status": "OPERATIONAL", "rating": 0.0, "types": "park; point_of_interest; establishment", "user_ratings_total": 0, "permanently_closed": null, "group": "Parks", "size": "1000", "cell_id": 86 }, "geometry": { "type": "Point", "coordinates": [ -71.0829441, 42.3128696 ] } },
{ "type": "Feature", "properties": { "place_id": "ChIJ1WzipoRw44kRwZ86TQ13Rus", "file": "place of worship", "name": "Ethiopian Evangelical Church", "business_status": "OPERATIONAL", "rating": 5.0, "types": "church; place_of_worship; point_of_interest; establishment", "user_ratings_total": 18, "permanently_closed": null, "group": "Places of Worship", "size": "1000", "cell_id": 108 }, "geometry": { "type": "Point", "coordinates": [ -71.0873166, 42.3264102 ] } },
{ "type": "Feature", "properties": { "place_id": "ChIJ1X6X0i9_44kRx362_Y6XB3I", "file": "place of worship", "name": "The Glorious Church of Jesus Christ", "business_status": "OPERATIONAL", "rating": 5.0, "types": "church; place_of_worship; point_of_interest; establishment", "user_ratings_total": 4, "permanently_closed": null, "group": "Places of Worship", "size": "1000", "cell_id": 35 }, "geometry": { "type": "Point", "coordinates": [ -71.1079242, 42.2727204 ] } },
{ "type": "Feature", "properties": { "place_id": "ChIJ1Xpfc2Z744kRD47Xf4i6pEI", "file": "park", "name": "Welcome Young Playground", "business_status": "OPERATIONAL", "rating": 4.3, "types": "park; tourist_attraction; point_of_interest; establishment", "user_ratings_total": 59, "permanently_closed": null, "group": "Parks", "size": "1000", "cell_id": 62 }, "geometry": { "type": "Point", "coordinates": [ -71.0317621, 42.279896399999977 ] } },
{ "type": "Feature", "properties": { "place_id": "ChIJ1ZTT6kJ344kRPNF5Mz-GwRY", "file": "square", "name": "&pizza - Harvard Square", "business_status": "OPERATIONAL", "rating": 4.3, "types": "restaurant; food; point_of_interest; establishment", "user_ratings_total": 87, "permanently_closed": null, "group": "Parks", "size": "1000", "cell_id": 173 }, "geometry": { "type": "Point", "coordinates": [ -71.1195647, 42.3735743 ] } },
{ "type": "Feature", "properties": { "place_id": "ChIJ2-6Qa7Nv44kRI5Om_N3-ugo", "file": "bookstore", "name": "Antiquarian Books of Boston", "business_status": "OPERATIONAL", "rating": 5.0, "types": "book_store; point_of_interest; store; establishment", "user_ratings_total": 1, "permanently_closed": null, "group": "Social Businesses", "size": "1000", "cell_id": 212 }, "geometry": { "type": "Point", "coordinates": [ -70.9707244, 42.374196699999949 ] } },
{ "type": "Feature", "properties": { "place_id": "ChIJ2-LSPe1744kRl8sSa9vAvDo", "file": "square", "name": "Codman Square", "business_status": null, "rating": null, "types": "neighborhood; political", "user_ratings_total": null, "permanently_closed": null, "group": "Parks", "size": "1000", "cell_id": 69 }, "geometry": { "type": "Point", "coordinates": [ -71.0750332, 42.289817599999957 ] } },
{ "type": "Feature", "properties": { "place_id": "ChIJ2-VOexdx44kRKpmQIKddAYQ", "file": "fountain", "name": "The Home Depot", "business_status": "OPERATIONAL", "rating": 4.2, "types": "hardware_store; furniture_store; home_goods_store; point_of_interest; store; establishment", "user_ratings_total": 771, "permanently_closed": null, "group": "Parks", "size": "1000", "cell_id": 214 }, "geometry": { "type": "Point", "coordinates": [ -71.0697493, 42.39761680000003 ] } },
{ "type": "Feature", "properties": { "place_id": "ChIJ20cq-PNw44kR2aPg3H_7OQs", "file": "city hall", "name": "City of Boston", "business_status": "OPERATIONAL", "rating": 5.0, "types": "local_government_office; point_of_interest; establishment", "user_ratings_total": 1, "permanently_closed": null, "group": "Community Space", "size": "1000", "cell_id": 195 }, "geometry": { "type": "Point", "coordinates": [ -71.0558786, 42.375088099999978 ] } },
{ "type": "Feature", "properties": { "place_id": "ChIJ2165dxRx44kR2z5tG-14ojM", "file": "place of worship", "name": "Glendale Christian Lighthouse Church", "business_status": "OPERATIONAL", "rating": 0.0, "types": "church; place_of_worship; point_of_interest; establishment", "user_ratings_total": 0, "permanently_closed": null, "group": "Places of Worship", "size": "1000", "cell_id": 224 }, "geometry": { "type": "Point", "coordinates": [ -71.0282542, 42.395908600000013 ] } },
{ "type": "Feature", "properties": { "place_id": "ChIJ238ymKR744kRB119fG7lqw8", "file": "cafe", "name": "Dot Cafe", "business_status": "OPERATIONAL", "rating": 4.4, "types": "cafe; restaurant; food; point_of_interest; establishment", "user_ratings_total": 143, "permanently_closed": null, "group": "Social Businesses", "size": "1000", "cell_id": 79 }, "geometry": { "type": "Point", "coordinates": [ -71.060209, 42.300982 ] } },
{ "type": "Feature", "properties": { "place_id": "ChIJ25L83fx544kRiuWNvWYdSLA", "file": "park", "name": "Old Morse Park", "business_status": "OPERATIONAL", "rating": 4.6, "types": "park; tourist_attraction; point_of_interest; establishment", "user_ratings_total": 67, "permanently_closed": null, "group": "Parks", "size": "1000", "cell_id": 159 }, "geometry": { "type": "Point", "coordinates": [ -71.1078085, 42.358032800000025 ] } },
{ "type": "Feature", "properties": { "place_id": "ChIJ26pDVstv44kRL8--1sVCc2Q", "file": "square", "name": "Metcalf Square", "business_status": "OPERATIONAL", "rating": 4.1, "types": "park; point_of_interest; establishment", "user_ratings_total": 10, "permanently_closed": null, "group": "Parks", "size": "1000", "cell_id": 211 }, "geometry": { "type": "Point", "coordinates": [ -70.9843072, 42.377288799999988 ] } },
{ "type": "Feature", "properties": { "place_id": "ChIJ28I_0ox-44kRwXNLDE84if4", "file": "square", "name": "Cleary Square Eyecare", "business_status": "OPERATIONAL", "rating": 4.9, "types": "health; point_of_interest; store; establishment", "user_ratings_total": 33, "permanently_closed": null, "group": "Parks", "size": "1000", "cell_id": 17 }, "geometry": { "type": "Point", "coordinates": [ -71.1210211, 42.255538800000025 ] } },
{ "type": "Feature", "properties": { "place_id": "ChIJ29N3qP9544kRiIo3XWvpU_s", "file": "park", "name": "Shubow Park", "business_status": "OPERATIONAL", "rating": 0.0, "types": "park; point_of_interest; establishment", "user_ratings_total": 0, "permanently_closed": null, "group": "Parks", "size": "1000", "cell_id": 105 }, "geometry": { "type": "Point", "coordinates": [ -71.1520593, 42.3403073 ] } },
{ "type": "Feature", "properties": { "place_id": "ChIJ2S9jqXJ844kRhra1YFyAvmE", "file": "cafe", "name": "Coffee Break Cafe", "business_status": "OPERATIONAL", "rating": 4.4, "types": "cafe; food; point_of_interest; store; establishment", "user_ratings_total": 109, "permanently_closed": null, "group": "Social Businesses", "size": "1000", "cell_id": 38 }, "geometry": { "type": "Point", "coordinates": [ -71.0729406, 42.26938370000007 ] } },
{ "type": "Feature", "properties": { "place_id": "ChIJ2SmQq_V744kRQhsj0j_nDTg", "file": "place of worship", "name": "OUTDOOR CHURCH; Thursdays 6pm", "business_status": "OPERATIONAL", "rating": 0.0, "types": "church; place_of_worship; point_of_interest; establishment", "user_ratings_total": 0, "permanently_closed": null, "group": "Places of Worship", "size": "1000", "cell_id": 145 }, "geometry": { "type": "Point", "coordinates": [ -71.0619438, 42.344307500000035 ] } },
{ "type": "Feature", "properties": { "place_id": "ChIJ2TgQ4Ct_44kRf4vZniz8Ahc", "file": "community center", "name": "BCYF Roche Community Center", "business_status": "CLOSED_TEMPORARILY", "rating": 4.6, "types": "point_of_interest; establishment", "user_ratings_total": 22, "permanently_closed": true, "group": "Community Space", "size": "1000", "cell_id": 42 }, "geometry": { "type": "Point", "coordinates": [ -71.1493142, 42.286946399999977 ] } },
{ "type": "Feature", "properties": { "place_id": "ChIJ2UrMTMxv44kR4qJ8bppHq5U", "file": "bookstore", "name": "Winthrop Book Depot", "business_status": "OPERATIONAL", "rating": 4.9, "types": "book_store; point_of_interest; store; establishment", "user_ratings_total": 41, "permanently_closed": null, "group": "Social Businesses", "size": "1000", "cell_id": 211 }, "geometry": { "type": "Point", "coordinates": [ -70.9873967, 42.3749783 ] } },
{ "type": "Feature", "properties": { "place_id": "ChIJ2Vq1Anh544kRhQO4Ho_qWXQ", "file": "cafe", "name": "Ethiopian Cafe", "business_status": "OPERATIONAL", "rating": 4.8, "types": "restaurant; food; point_of_interest; establishment", "user_ratings_total": 148, "permanently_closed": null, "group": "Social Businesses", "size": "1000", "cell_id": 94 }, "geometry": { "type": "Point", "coordinates": [ -71.109111, 42.322384299999989 ] } },
{ "type": "Feature", "properties": { "place_id": "ChIJ2WeE6nd644kRBsjMC3gkmis", "file": "library", "name": "Chinatown Branch of the Boston Public Library", "business_status": "OPERATIONAL", "rating": 4.1, "types": "library; point_of_interest; establishment", "user_ratings_total": 10, "permanently_closed": null, "group": "Community Space", "size": "1000", "cell_id": 163 }, "geometry": { "type": "Point", "coordinates": [ -71.0627946, 42.3521501 ] } },
{ "type": "Feature", "properties": { "place_id": "ChIJ2Wr7mYFw44kR5N8EyoBnNQQ", "file": "square", "name": "Rose Kennedy Greenway", "business_status": "OPERATIONAL", "rating": 4.6, "types": "park; tourist_attraction; point_of_interest; establishment", "user_ratings_total": 580, "permanently_closed": null, "group": "Parks", "size": "1000", "cell_id": 163 }, "geometry": { "type": "Point", "coordinates": [ -71.0545619, 42.3534289 ] } },
{ "type": "Feature", "properties": { "place_id": "ChIJ2Wx_-5l_44kRHpggOI_HJAo", "file": "library", "name": "本地图书馆", "business_status": "OPERATIONAL", "rating": 0.0, "types": "library; point_of_interest; establishment", "user_ratings_total": 0, "permanently_closed": null, "group": "Community Space", "size": "1000", "cell_id": 44 }, "geometry": { "type": "Point", "coordinates": [ -71.1286063, 42.285651099999988 ] } },
{ "type": "Feature", "properties": { "place_id": "ChIJ2XF1fFpw44kRbAQ6QcSwDYQ", "file": "square", "name": "Central Square", "business_status": null, "rating": null, "types": "neighborhood; political", "user_ratings_total": null, "permanently_closed": null, "group": "Parks", "size": "1000", "cell_id": 196 }, "geometry": { "type": "Point", "coordinates": [ -71.040119500000017, 42.377131500000019 ] } },
{ "type": "Feature", "properties": { "place_id": "ChIJ3_j9gbVx44kRw4YpXlIcDbE", "file": "park", "name": "Highland Park", "business_status": "OPERATIONAL", "rating": 4.4, "types": "park; tourist_attraction; point_of_interest; establishment", "user_ratings_total": 130, "permanently_closed": null, "group": "Parks", "size": "1000", "cell_id": 217 }, "geometry": { "type": "Point", "coordinates": [ -71.026388900000015, 42.387222199999975 ] } },
{ "type": "Feature", "properties": { "place_id": "ChIJ32lAd_d544kRYeDQ0-3Uml0", "file": "library", "name": "Pickering Educational Resources Library", "business_status": "OPERATIONAL", "rating": 0.0, "types": "library; point_of_interest; establishment", "user_ratings_total": 0, "permanently_closed": null, "group": "Community Space", "size": "1000", "cell_id": 142 }, "geometry": { "type": "Point", "coordinates": [ -71.1008518, 42.349696700000024 ] } },
{ "type": "Feature", "properties": { "place_id": "ChIJ38hTYUN544kR7xPtmO9Gxqk", "file": "park", "name": "Goose park", "business_status": "OPERATIONAL", "rating": 4.3, "types": "park; point_of_interest; establishment", "user_ratings_total": 7, "permanently_closed": null, "group": "Parks", "size": "1000", "cell_id": 141 }, "geometry": { "type": "Point", "coordinates": [ -71.110017, 42.3533462 ] } },
{ "type": "Feature", "properties": { "place_id": "ChIJ39KVLzd744kR74gEvIojWtI", "file": "square", "name": "Dorset Square Residences", "business_status": "OPERATIONAL", "rating": 5.0, "types": "real_estate_agency; point_of_interest; establishment", "user_ratings_total": 19, "permanently_closed": null, "group": "Parks", "size": "1000", "cell_id": 70 }, "geometry": { "type": "Point", "coordinates": [ -71.0651207, 42.2889414 ] } },
{ "type": "Feature", "properties": { "place_id": "ChIJ3coGI35644kRv9JWb6j2fmA", "file": "park", "name": "Wormwood Park", "business_status": "OPERATIONAL", "rating": 5.0, "types": "park; point_of_interest; establishment", "user_ratings_total": 2, "permanently_closed": null, "group": "Parks", "size": "1000", "cell_id": 164 }, "geometry": { "type": "Point", "coordinates": [ -71.0503803, 42.347601 ] } },
{ "type": "Feature", "properties": { "place_id": "ChIJ3QYkpk9744kR0DUcWPyAhaI", "file": "bookstore", "name": "Posman Books", "business_status": "OPERATIONAL", "rating": 0.0, "types": "book_store; point_of_interest; store; establishment", "user_ratings_total": 0, "permanently_closed": null, "group": "Social Businesses", "size": "1000", "cell_id": 162 }, "geometry": { "type": "Point", "coordinates": [ -71.076773, 42.3514 ] } },
{ "type": "Feature", "properties": { "place_id": "ChIJ3TFxZ5Bv44kR4FPlelpF0Qc", "file": "square", "name": "Flaherty Square", "business_status": "OPERATIONAL", "rating": 0.0, "types": "park; point_of_interest; establishment", "user_ratings_total": 0, "permanently_closed": null, "group": "Parks", "size": "1000", "cell_id": 239 }, "geometry": { "type": "Point", "coordinates": [ -70.9933421, 42.408661599999931 ] } },
{ "type": "Feature", "properties": { "place_id": "ChIJ3VAEEYJ544kRnxsZGDVPzkM", "file": "place of worship", "name": "Fellowship Church of God", "business_status": "OPERATIONAL", "rating": 5.0, "types": "church; place_of_worship; point_of_interest; establishment", "user_ratings_total": 1, "permanently_closed": null, "group": "Places of Worship", "size": "1000", "cell_id": 95 }, "geometry": { "type": "Point", "coordinates": [ -71.104234, 42.323073599999965 ] } },
{ "type": "Feature", "properties": { "place_id": "ChIJ3VJnSmZ544kRDdb-y9jYKEA", "file": "cafe", "name": "Midway Café", "business_status": "OPERATIONAL", "rating": 4.6, "types": "bar; point_of_interest; establishment", "user_ratings_total": 356, "permanently_closed": null, "group": "Social Businesses", "size": "1000", "cell_id": 75 }, "geometry": { "type": "Point", "coordinates": [ -71.1075396, 42.306226100000046 ] } },
{ "type": "Feature", "properties": { "place_id": "ChIJ3Wc0GUp744kRPWwNW7JpKSU", "file": "cafe", "name": "Dunkin'", "business_status": "OPERATIONAL", "rating": 1.0, "types": "bakery; meal_takeaway; cafe; restaurant; food; point_of_interest; store; establishment", "user_ratings_total": 1, "permanently_closed": null, "group": "Social Businesses", "size": "1000", "cell_id": 49 }, "geometry": { "type": "Point", "coordinates": [ -71.0655093, 42.277648099999972 ] } },
{ "type": "Feature", "properties": { "place_id": "ChIJ3Wj3rYhw44kR1sF3KTHMdtw", "file": "library", "name": "Little Free Library", "business_status": "OPERATIONAL", "rating": 1.0, "types": "library; point_of_interest; establishment", "user_ratings_total": 1, "permanently_closed": null, "group": "Community Space", "size": "1000", "cell_id": 175 }, "geometry": { "type": "Point", "coordinates": [ -71.055398099999977, 42.3619194 ] } },
{ "type": "Feature", "properties": { "place_id": "ChIJ3WJF04x-44kR85NV6VP21yI", "file": "square", "name": "Burritos Pizzeria -Tommy's Pizzeria", "business_status": "OPERATIONAL", "rating": 4.4, "types": "meal_takeaway; meal_delivery; restaurant; food; point_of_interest; establishment", "user_ratings_total": 84, "permanently_closed": null, "group": "Parks", "size": "1000", "cell_id": 17 }, "geometry": { "type": "Point", "coordinates": [ -71.1240921, 42.255229600000042 ] } },
{ "type": "Feature", "properties": { "place_id": "ChIJ3Xe-Xstv44kRUB-cf3GFD44", "file": "place of worship", "name": "First Church-Winthrop United", "business_status": "OPERATIONAL", "rating": 4.4, "types": "church; place_of_worship; point_of_interest; establishment", "user_ratings_total": 7, "permanently_closed": null, "group": "Places of Worship", "size": "1000", "cell_id": 211 }, "geometry": { "type": "Point", "coordinates": [ -70.9835177, 42.376745299999968 ] } },
{ "type": "Feature", "properties": { "place_id": "ChIJ3xhBUa9w44kRL8bJ5IygViE", "file": "bookstore", "name": "MIT Press Bookstore", "business_status": "CLOSED_TEMPORARILY", "rating": 4.7, "types": "book_store; point_of_interest; store; establishment", "user_ratings_total": 229, "permanently_closed": true, "group": "Social Businesses", "size": "1000", "cell_id": 160 }, "geometry": { "type": "Point", "coordinates": [ -71.0982259, 42.3623788 ] } },
{ "type": "Feature", "properties": { "place_id": "ChIJ3Y4Td4Nx44kRHivw-C6BEcg", "file": "place of worship", "name": "Revere Spanish Seventh-Day Adventist Church", "business_status": "OPERATIONAL", "rating": 0.0, "types": "church; place_of_worship; point_of_interest; establishment", "user_ratings_total": 0, "permanently_closed": null, "group": "Places of Worship", "size": "1000", "cell_id": 238 }, "geometry": { "type": "Point", "coordinates": [ -71.0089718, 42.4083497 ] } },
{ "type": "Feature", "properties": { "place_id": "ChIJ3z-ZleBx44kRg3mWrMBMNoE", "file": "fountain", "name": "BottleFillingStations.com", "business_status": "OPERATIONAL", "rating": 0.0, "types": "point_of_interest; establishment", "user_ratings_total": 0, "permanently_closed": null, "group": "Parks", "size": "1000", "cell_id": 175 }, "geometry": { "type": "Point", "coordinates": [ -71.057588, 42.357 ] } },
{ "type": "Feature", "properties": { "place_id": "ChIJ3Z2YM7Bx44kRoJkLNDGi1pY", "file": "community center", "name": "Chelsea Community Schools", "business_status": "OPERATIONAL", "rating": 3.7, "types": "point_of_interest; establishment", "user_ratings_total": 7, "permanently_closed": null, "group": "Community Space", "size": "1000", "cell_id": 217 }, "geometry": { "type": "Point", "coordinates": [ -71.0367635, 42.39393020000005 ] } },
{ "type": "Feature", "properties": { "place_id": "ChIJ3ZkcDMZ544kRRxpBByRvkhU", "file": "cafe", "name": "Pavement Coffeehouse", "business_status": "OPERATIONAL", "rating": 4.3, "types": "bakery; cafe; restaurant; food; point_of_interest; store; establishment", "user_ratings_total": 250, "permanently_closed": null, "group": "Social Businesses", "size": "1000", "cell_id": 122 }, "geometry": { "type": "Point", "coordinates": [ -71.131802900000011, 42.350299899999989 ] } },
{ "type": "Feature", "properties": { "place_id": "ChIJ3zN1pUlw44kRQkX2h2dxXIo", "file": "square", "name": "Muzzy Day Square Florist", "business_status": "OPERATIONAL", "rating": 4.2, "types": "florist; point_of_interest; store; establishment", "user_ratings_total": 26, "permanently_closed": null, "group": "Parks", "size": "1000", "cell_id": 208 }, "geometry": { "type": "Point", "coordinates": [ -71.0283164, 42.3787055 ] } },
{ "type": "Feature", "properties": { "place_id": "ChIJ4-4FkIZ544kRKXsqNRL0aQU", "file": "park", "name": "McLaughlin Playground", "business_status": "OPERATIONAL", "rating": 4.3, "types": "park; point_of_interest; establishment", "user_ratings_total": 98, "permanently_closed": null, "group": "Parks", "size": "1000", "cell_id": 107 }, "geometry": { "type": "Point", "coordinates": [ -71.102091700000017, 42.32839850000002 ] } },
{ "type": "Feature", "properties": { "place_id": "ChIJ43eS6UF-44kRoOPi64jk8GU", "file": "park", "name": "Burma Trail Parking", "business_status": "OPERATIONAL", "rating": 4.4, "types": "park; point_of_interest; establishment", "user_ratings_total": 9, "permanently_closed": null, "group": "Parks", "size": "1000", "cell_id": 3 }, "geometry": { "type": "Point", "coordinates": [ -71.1221526, 42.233671099999988 ] } },
{ "type": "Feature", "properties": { "place_id": "ChIJ46Dhm7lw44kRLxl9FD113Zg", "file": "place of worship", "name": "Trinity Cambridge Church", "business_status": "OPERATIONAL", "rating": 5.0, "types": "church; place_of_worship; point_of_interest; establishment", "user_ratings_total": 5, "permanently_closed": null, "group": "Places of Worship", "size": "1000", "cell_id": 182 }, "geometry": { "type": "Point", "coordinates": [ -71.0868353, 42.369713300000022 ] } },
{ "type": "Feature", "properties": { "place_id": "ChIJ4bSSySN_44kRtSQxjzJ5WKg", "file": "square", "name": "Emmel Square", "business_status": "OPERATIONAL", "rating": 0.0, "types": "park; point_of_interest; establishment", "user_ratings_total": 0, "permanently_closed": null, "group": "Parks", "size": "1000", "cell_id": 44 }, "geometry": { "type": "Point", "coordinates": [ -71.1322095, 42.287558899999965 ] } },
{ "type": "Feature", "properties": { "place_id": "ChIJ4d8Lxox-44kR--_MCeEbLlc", "file": "square", "name": "Luu & Nails", "business_status": "OPERATIONAL", "rating": 3.7, "types": "beauty_salon; point_of_interest; establishment", "user_ratings_total": 45, "permanently_closed": null, "group": "Parks", "size": "1000", "cell_id": 17 }, "geometry": { "type": "Point", "coordinates": [ -71.12067110000001, 42.255261 ] } },
{ "type": "Feature", "properties": { "place_id": "ChIJ4dSFXXh544kRh00zQb2zrww", "file": "square", "name": "Hyde Square Music Studio", "business_status": "OPERATIONAL", "rating": 0.0, "types": "school; point_of_interest; establishment", "user_ratings_total": 0, "permanently_closed": null, "group": "Parks", "size": "1000", "cell_id": 95 }, "geometry": { "type": "Point", "coordinates": [ -71.106764, 42.321368699999979 ] } },
{ "type": "Feature", "properties": { "place_id": "ChIJ4USrtJxw44kRygxzADbIpgM", "file": "bookstore", "name": "Suffolk University Bookstore", "business_status": "OPERATIONAL", "rating": 3.7, "types": "book_store; point_of_interest; store; establishment", "user_ratings_total": 46, "permanently_closed": null, "group": "Social Businesses", "size": "1000", "cell_id": 175 }, "geometry": { "type": "Point", "coordinates": [ -71.0611139, 42.356781900000044 ] } },
{ "type": "Feature", "properties": { "place_id": "ChIJ4VzPmRl644kRw5bUbgV-4UY", "file": "library", "name": "Snell Library", "business_status": "OPERATIONAL", "rating": 4.7, "types": "library; point_of_interest; establishment", "user_ratings_total": 181, "permanently_closed": null, "group": "Community Space", "size": "1000", "cell_id": 124 }, "geometry": { "type": "Point", "coordinates": [ -71.088071299999982, 42.3383962 ] } },
{ "type": "Feature", "properties": { "place_id": "ChIJ4Wx6DTZ644kRUqclm7xY9xg", "file": "park", "name": "Dennis Street Park", "business_status": "OPERATIONAL", "rating": 3.9, "types": "park; point_of_interest; establishment", "user_ratings_total": 41, "permanently_closed": null, "group": "Parks", "size": "1000", "cell_id": 97 }, "geometry": { "type": "Point", "coordinates": [ -71.074875100000014, 42.3222917 ] } },
{ "type": "Feature", "properties": { "place_id": "ChIJ4xu5a99-44kR6P8FhcFMEV8", "file": "park", "name": "Bellevue Hill Park", "business_status": "OPERATIONAL", "rating": 4.5, "types": "park; point_of_interest; establishment", "user_ratings_total": 26, "permanently_closed": null, "group": "Parks", "size": "1000", "cell_id": 32 }, "geometry": { "type": "Point", "coordinates": [ -71.1432613, 42.2756336 ] } },
{ "type": "Feature", "properties": { "place_id": "ChIJ4xvQAg1_44kRWMWsqvZ_VfU", "file": "cafe", "name": "Hunger busted", "business_status": "OPERATIONAL", "rating": 0.0, "types": "food; point_of_interest; store; establishment", "user_ratings_total": 0, "permanently_closed": null, "group": "Social Businesses", "size": "1000", "cell_id": 42 }, "geometry": { "type": "Point", "coordinates": [ -71.1529746, 42.287663400000042 ] } },
{ "type": "Feature", "properties": { "place_id": "ChIJ4YX7bKxx44kR5Q0u4ZgZYGE", "file": "community center", "name": "Community Action Programs Inter-City, Inc. Arlington Street Extension", "business_status": "OPERATIONAL", "rating": 0.0, "types": "point_of_interest; establishment", "user_ratings_total": 0, "permanently_closed": null, "group": "Community Space", "size": "1000", "cell_id": 216 }, "geometry": { "type": "Point", "coordinates": [ -71.0421624, 42.390983799999951 ] } },
{ "type": "Feature", "properties": { "place_id": "ChIJ5_iDsblw44kRJGZB56LMjHA", "file": "park", "name": "Gold Star Mothers Park", "business_status": "OPERATIONAL", "rating": 4.5, "types": "park; point_of_interest; establishment", "user_ratings_total": 115, "permanently_closed": null, "group": "Parks", "size": "1000", "cell_id": 182 }, "geometry": { "type": "Point", "coordinates": [ -71.0837612, 42.372862 ] } },
{ "type": "Feature", "properties": { "place_id": "ChIJ533KYfl744kRib7HGcs_L3g", "file": "place of worship", "name": "The Way Of The Cross Holy Church Pastor Em. Kelley", "business_status": "OPERATIONAL", "rating": 0.0, "types": "church; place_of_worship; point_of_interest; establishment", "user_ratings_total": 0, "permanently_closed": null, "group": "Places of Worship", "size": "1000", "cell_id": 58 }, "geometry": { "type": "Point", "coordinates": [ -71.0897379, 42.286305800000022 ] } },
{ "type": "Feature", "properties": { "place_id": "ChIJ59d9eUB444kRmACn_2-tr30", "file": "park", "name": "Hardiman Playground", "business_status": "OPERATIONAL", "rating": 4.1, "types": "park; point_of_interest; establishment", "user_ratings_total": 19, "permanently_closed": null, "group": "Parks", "size": "1000", "cell_id": 119 }, "geometry": { "type": "Point", "coordinates": [ -71.1661362, 42.351351899999969 ] } },
{ "type": "Feature", "properties": { "place_id": "ChIJ59Vj6rtx44kRP-4nthEW6kU", "file": "fountain", "name": "The George Robert Fountain", "business_status": "OPERATIONAL", "rating": 4.0, "types": "tourist_attraction; point_of_interest; establishment", "user_ratings_total": 1, "permanently_closed": null, "group": "Parks", "size": "1000", "cell_id": 184 }, "geometry": { "type": "Point", "coordinates": [ -71.0537744, 42.365914799999949 ] } },
{ "type": "Feature", "properties": { "place_id": "ChIJ5aaO8WFx44kRlEYJE1-Dbg8", "file": "park", "name": "Piers Park", "business_status": "OPERATIONAL", "rating": 4.8, "types": "park; point_of_interest; establishment", "user_ratings_total": 183, "permanently_closed": null, "group": "Parks", "size": "1000", "cell_id": 185 }, "geometry": { "type": "Point", "coordinates": [ -71.0361399, 42.364963499999988 ] } },
{ "type": "Feature", "properties": { "place_id": "ChIJ5adBj2l344kReV9peiVxuhU", "file": "place of worship", "name": "Journey Church Cambridge", "business_status": "OPERATIONAL", "rating": 5.0, "types": "church; place_of_worship; point_of_interest; establishment", "user_ratings_total": 5, "permanently_closed": null, "group": "Places of Worship", "size": "1000", "cell_id": 159 }, "geometry": { "type": "Point", "coordinates": [ -71.1109188, 42.3588226 ] } },
{ "type": "Feature", "properties": { "place_id": "ChIJ5bMR_Zh_44kR431TFdRp4ag", "file": "fountain", "name": "Lowe's Home Improvement", "business_status": "OPERATIONAL", "rating": 3.7, "types": "hardware_store; furniture_store; home_goods_store; point_of_interest; store; establishment", "user_ratings_total": 967, "permanently_closed": null, "group": "Parks", "size": "1000", "cell_id": 7 }, "geometry": { "type": "Point", "coordinates": [ -71.17000920000001, 42.252448600000044 ] } },
{ "type": "Feature", "properties": { "place_id": "ChIJ5brITqV544kRc9uRNz3Ik_M", "file": "cafe", "name": "Monumental Market", "business_status": "OPERATIONAL", "rating": 4.9, "types": "bakery; cafe; electronics_store; home_goods_store; food; point_of_interest; store; establishment", "user_ratings_total": 32, "permanently_closed": null, "group": "Social Businesses", "size": "1000", "cell_id": 74 }, "geometry": { "type": "Point", "coordinates": [ -71.1153404, 42.308385900000012 ] } },
{ "type": "Feature", "properties": { "place_id": "ChIJ5eGgpoZ544kR7s4ULb6NBAE", "file": "cafe", "name": "The Chocolate Bar", "business_status": "CLOSED_TEMPORARILY", "rating": 4.6, "types": "cafe; food; point_of_interest; store; establishment", "user_ratings_total": 17, "permanently_closed": true, "group": "Social Businesses", "size": "1000", "cell_id": 90 }, "geometry": { "type": "Point", "coordinates": [ -71.1712504, 42.3342788 ] } },
{ "type": "Feature", "properties": { "place_id": "ChIJ5ehY81F644kRVxFTHZ6oDog", "file": "square", "name": "Thomas J Kane Square", "business_status": "OPERATIONAL", "rating": 4.1, "types": "park; point_of_interest; establishment", "user_ratings_total": 22, "permanently_closed": null, "group": "Parks", "size": "1000", "cell_id": 98 }, "geometry": { "type": "Point", "coordinates": [ -71.059991, 42.3197968 ] } },
{ "type": "Feature", "properties": { "place_id": "ChIJ5RnU46d744kRVJHCktkQcS0", "file": "bookstore", "name": "Fry Howard Store", "business_status": "OPERATIONAL", "rating": 0.0, "types": "book_store; point_of_interest; store; establishment", "user_ratings_total": 0, "permanently_closed": null, "group": "Social Businesses", "size": "1000", "cell_id": 126 }, "geometry": { "type": "Point", "coordinates": [ -71.0635616, 42.335016499999966 ] } },
{ "type": "Feature", "properties": { "place_id": "ChIJ5Sh2bUN344kRSqPqtIt0lNA", "file": "library", "name": "Widener Library", "business_status": "OPERATIONAL", "rating": 4.7, "types": "library; tourist_attraction; point_of_interest; establishment", "user_ratings_total": 130, "permanently_closed": null, "group": "Community Space", "size": "1000", "cell_id": 173 }, "geometry": { "type": "Point", "coordinates": [ -71.1165055, 42.3734467 ] } },
{ "type": "Feature", "properties": { "place_id": "ChIJ5SYtrkd444kRY2VcCmvcv_U", "file": "park", "name": "Park Plaza Center", "business_status": "OPERATIONAL", "rating": 4.5, "types": "park; point_of_interest; establishment", "user_ratings_total": 13, "permanently_closed": null, "group": "Parks", "size": "1000", "cell_id": 120 }, "geometry": { "type": "Point", "coordinates": [ -71.1590032, 42.348690800000028 ] } },
{ "type": "Feature", "properties": { "place_id": "ChIJ5UF3uJhx44kRzmrpECdV9p4", "file": "park", "name": "John Gramstorf Playground", "business_status": "OPERATIONAL", "rating": 4.5, "types": "park; point_of_interest; establishment", "user_ratings_total": 56, "permanently_closed": null, "group": "Parks", "size": "1000", "cell_id": 230 }, "geometry": { "type": "Point", "coordinates": [ -71.042905300000015, 42.408021700000013 ] } },
{ "type": "Feature", "properties": { "place_id": "ChIJ5VL6kc5544kRfrQMgDiMnVQ", "file": "community center", "name": "Jackson Mann Community Center", "business_status": "OPERATIONAL", "rating": 4.4, "types": "point_of_interest; establishment", "user_ratings_total": 23, "permanently_closed": null, "group": "Community Space", "size": "1000", "cell_id": 139 }, "geometry": { "type": "Point", "coordinates": [ -71.137571, 42.353102699999972 ] } },
{ "type": "Feature", "properties": { "place_id": "ChIJ5VQra_B544kRktJz6TyUte4", "file": "library", "name": "African Studies Library", "business_status": "OPERATIONAL", "rating": 0.0, "types": "library; point_of_interest; establishment", "user_ratings_total": 0, "permanently_closed": null, "group": "Community Space", "size": "1000", "cell_id": 141 }, "geometry": { "type": "Point", "coordinates": [ -71.108226700000017, 42.350723199999962 ] } },
{ "type": "Feature", "properties": { "place_id": "ChIJ5Whkqkl444kR2ykyDWuedE4", "file": "city hall", "name": "Brighton Division, Boston Municipal Court", "business_status": "OPERATIONAL", "rating": 3.2, "types": "courthouse; local_government_office; point_of_interest; establishment", "user_ratings_total": 9, "permanently_closed": null, "group": "Community Space", "size": "1000", "cell_id": 120 }, "geometry": { "type": "Point", "coordinates": [ -71.1532169, 42.3472966 ] } },
{ "type": "Feature", "properties": { "place_id": "ChIJ5woE06Nx44kRtU0vYTST45g", "file": "city hall", "name": "Bill Russell Statue on City Hall Plaza", "business_status": "OPERATIONAL", "rating": 5.0, "types": "tourist_attraction; point_of_interest; establishment", "user_ratings_total": 2, "permanently_closed": null, "group": "Community Space", "size": "1000", "cell_id": 175 }, "geometry": { "type": "Point", "coordinates": [ -71.0578483, 42.359742200000021 ] } },
{ "type": "Feature", "properties": { "place_id": "ChIJ5WOiT_1544kRNyq1plsAd90", "file": "library", "name": "Showa University Japanese Library", "business_status": "OPERATIONAL", "rating": 0.0, "types": "library; point_of_interest; establishment", "user_ratings_total": 0, "permanently_closed": null, "group": "Community Space", "size": "1000", "cell_id": 73 }, "geometry": { "type": "Point", "coordinates": [ -71.131140800000011, 42.307463600000055 ] } },
{ "type": "Feature", "properties": { "place_id": "ChIJ5x4npIRw44kRw4j1dFl86tM", "file": "library", "name": "Mildred F Sawyer Library", "business_status": "OPERATIONAL", "rating": 5.0, "types": "library; point_of_interest; establishment", "user_ratings_total": 5, "permanently_closed": null, "group": "Community Space", "size": "1000", "cell_id": 175 }, "geometry": { "type": "Point", "coordinates": [ -71.0610172, 42.3578231 ] } },
{ "type": "Feature", "properties": { "place_id": "ChIJ5y2BxLp544kRgk83fqo5MvI", "file": "library", "name": "Little Free Library #45251", "business_status": "OPERATIONAL", "rating": 0.0, "types": "library; point_of_interest; establishment", "user_ratings_total": 0, "permanently_closed": null, "group": "Community Space", "size": "1000", "cell_id": 93 }, "geometry": { "type": "Point", "coordinates": [ -71.1232319, 42.3262255 ] } },
{ "type": "Feature", "properties": { "place_id": "ChIJ5yGrtLFx44kRczw5iQXoyws", "file": "fountain", "name": "4 Fountain Pl", "business_status": "OPERATIONAL", "rating": 0.0, "types": "point_of_interest; establishment", "user_ratings_total": 0, "permanently_closed": null, "group": "Parks", "size": "1000", "cell_id": 184 }, "geometry": { "type": "Point", "coordinates": [ -71.0529863, 42.366543300000018 ] } },
{ "type": "Feature", "properties": { "place_id": "ChIJ5yIQjJp544kRGZKNsxOB9Gk", "file": "square", "name": "Huntington Square Coin-Op Laundry", "business_status": "OPERATIONAL", "rating": 2.9, "types": "laundry; point_of_interest; establishment", "user_ratings_total": 17, "permanently_closed": null, "group": "Parks", "size": "1000", "cell_id": 106 }, "geometry": { "type": "Point", "coordinates": [ -71.1116355, 42.331945500000025 ] } },
{ "type": "Feature", "properties": { "place_id": "ChIJ5ZUjkaR744kRtWvxpuzxo7Y", "file": "cafe", "name": "home.stead bakery & cafe", "business_status": "CLOSED_TEMPORARILY", "rating": 4.7, "types": "cafe; bakery; restaurant; food; point_of_interest; store; establishment", "user_ratings_total": 239, "permanently_closed": true, "group": "Social Businesses", "size": "1000", "cell_id": 79 }, "geometry": { "type": "Point", "coordinates": [ -71.0597588, 42.3012194 ] } },
{ "type": "Feature", "properties": { "place_id": "ChIJ5ZUjkaR744kRvZ3iFl-FJbI", "file": "place of worship", "name": "Christ the King Dorchester - Office", "business_status": "OPERATIONAL", "rating": 0.0, "types": "church; place_of_worship; point_of_interest; establishment", "user_ratings_total": 0, "permanently_closed": null, "group": "Places of Worship", "size": "1000", "cell_id": 79 }, "geometry": { "type": "Point", "coordinates": [ -71.059733200000011, 42.301068099999974 ] } },
{ "type": "Feature", "properties": { "place_id": "ChIJ6-J3Y3d644kRYKlMXXiNXA8", "file": "library", "name": "Hirsh Health Sciences Library", "business_status": "OPERATIONAL", "rating": 4.4, "types": "library; point_of_interest; establishment", "user_ratings_total": 7, "permanently_closed": null, "group": "Community Space", "size": "1000", "cell_id": 163 }, "geometry": { "type": "Point", "coordinates": [ -71.0622515, 42.3498309 ] } },
{ "type": "Feature", "properties": { "place_id": "ChIJ65Ak44hw44kRhpTNJ2UUlZs", "file": "bookstore", "name": "I AM Books", "business_status": "CLOSED_TEMPORARILY", "rating": 4.8, "types": "book_store; point_of_interest; store; establishment", "user_ratings_total": 63, "permanently_closed": true, "group": "Social Businesses", "size": "1000", "cell_id": 175 }, "geometry": { "type": "Point", "coordinates": [ -71.053588, 42.363275 ] } },
{ "type": "Feature", "properties": { "place_id": "ChIJ665ckXR644kR0wfGk5WCosQ", "file": "square", "name": "Park Square Building Office", "business_status": "OPERATIONAL", "rating": 3.7, "types": "point_of_interest; establishment", "user_ratings_total": 3, "permanently_closed": null, "group": "Parks", "size": "1000", "cell_id": 162 }, "geometry": { "type": "Point", "coordinates": [ -71.0707016, 42.351190499999959 ] } },
{ "type": "Feature", "properties": { "place_id": "ChIJ665ckXR644kRr58Vo9c7hCs", "file": "square", "name": "Park Square Cafe", "business_status": "OPERATIONAL", "rating": 4.2, "types": "cafe; restaurant; food; point_of_interest; establishment", "user_ratings_total": 31, "permanently_closed": null, "group": "Parks", "size": "1000", "cell_id": 162 }, "geometry": { "type": "Point", "coordinates": [ -71.071942800000031, 42.35082680000005 ] } },
{ "type": "Feature", "properties": { "place_id": "ChIJ67Ce_ZJ744kRD_uWYth_BAo", "file": "square", "name": "Codman Square District", "business_status": "OPERATIONAL", "rating": 0.0, "types": "point_of_interest; establishment", "user_ratings_total": 0, "permanently_closed": null, "group": "Parks", "size": "1000", "cell_id": 69 }, "geometry": { "type": "Point", "coordinates": [ -71.071112700000015, 42.290278799999982 ] } },
{ "type": "Feature", "properties": { "place_id": "ChIJ6aCNSW5744kR6QnDZQUtjaw", "file": "square", "name": "Tremlett Square", "business_status": "OPERATIONAL", "rating": 0.0, "types": "park; point_of_interest; establishment", "user_ratings_total": 0, "permanently_closed": null, "group": "Parks", "size": "1000", "cell_id": 69 }, "geometry": { "type": "Point", "coordinates": [ -71.0679612, 42.294991299999971 ] } },
{ "type": "Feature", "properties": { "place_id": "ChIJ6aWILe1644kRuxV8cxcFzkg", "file": "park", "name": "Boston Harborwalk", "business_status": "OPERATIONAL", "rating": 4.8, "types": "park; point_of_interest; establishment", "user_ratings_total": 5, "permanently_closed": null, "group": "Parks", "size": "1000", "cell_id": 129 }, "geometry": { "type": "Point", "coordinates": [ -71.0356422, 42.329262800000038 ] } },
{ "type": "Feature", "properties": { "place_id": "ChIJ6bS0cm5544kRmlxHVgoIjr4", "file": "city hall", "name": "Jamaica Plain Regional Office", "business_status": "OPERATIONAL", "rating": 0.0, "types": "local_government_office; point_of_interest; establishment", "user_ratings_total": 0, "permanently_closed": null, "group": "Community Space", "size": "1000", "cell_id": 83 }, "geometry": { "type": "Point", "coordinates": [ -71.1145397, 42.313237899999955 ] } },
{ "type": "Feature", "properties": { "place_id": "ChIJ6bYQtzN644kRe2N1OwamXjQ", "file": "place of worship", "name": "Church of God of Prophecy", "business_status": "OPERATIONAL", "rating": 4.8, "types": "church; place_of_worship; point_of_interest; establishment", "user_ratings_total": 6, "permanently_closed": null, "group": "Places of Worship", "size": "1000", "cell_id": 96 }, "geometry": { "type": "Point", "coordinates": [ -71.0816582, 42.321498 ] } },
{ "type": "Feature", "properties": { "place_id": "ChIJ6c11JYlw44kRgLeqFQfb8NM", "file": "library", "name": "North End Branch of the Boston Public Library", "business_status": "OPERATIONAL", "rating": 4.8, "types": "library; point_of_interest; establishment", "user_ratings_total": 12, "permanently_closed": null, "group": "Community Space", "size": "1000", "cell_id": 184 }, "geometry": { "type": "Point", "coordinates": [ -71.0549303, 42.364116300000035 ] } },
{ "type": "Feature", "properties": { "place_id": "ChIJ6c3tEc1-44kRB0r9c0LmgvU", "file": "park", "name": "Alexander the Great Park", "business_status": "OPERATIONAL", "rating": 4.4, "types": "park; tourist_attraction; point_of_interest; establishment", "user_ratings_total": 5, "permanently_closed": null, "group": "Parks", "size": "1000", "cell_id": 44 }, "geometry": { "type": "Point", "coordinates": [ -71.1310549, 42.2869321 ] } },
{ "type": "Feature", "properties": { "place_id": "ChIJ6diygIxw44kR92MflcNEOrk", "file": "park", "name": "Langone Park", "business_status": "OPERATIONAL", "rating": 4.6, "types": "tourist_attraction; park; point_of_interest; establishment", "user_ratings_total": 144, "permanently_closed": null, "group": "Parks", "size": "1000", "cell_id": 184 }, "geometry": { "type": "Point", "coordinates": [ -71.056154499999977, 42.368762300000014 ] } },
{ "type": "Feature", "properties": { "place_id": "ChIJ6eZ7t71w44kRQp9nMuN72ow", "file": "bookstore", "name": "Newbury Comics", "business_status": "OPERATIONAL", "rating": 4.4, "types": "book_store; electronics_store; home_goods_store; point_of_interest; clothing_store; store; establishment", "user_ratings_total": 141, "permanently_closed": null, "group": "Social Businesses", "size": "1000", "cell_id": 182 }, "geometry": { "type": "Point", "coordinates": [ -71.0757045, 42.368196699999984 ] } },
{ "type": "Feature", "properties": { "place_id": "ChIJ6flkJJJ-44kRBRIQIhvtTSw", "file": "place of worship", "name": "Hyde Park Foursquare Church", "business_status": "OPERATIONAL", "rating": 4.4, "types": "synagogue; church; place_of_worship; point_of_interest; establishment", "user_ratings_total": 17, "permanently_closed": null, "group": "Places of Worship", "size": "1000", "cell_id": 18 }, "geometry": { "type": "Point", "coordinates": [ -71.115607, 42.259089 ] } },
{ "type": "Feature", "properties": { "place_id": "ChIJ6RifBHh644kR0t57slTwxtI", "file": "square", "name": "Phillips Square", "business_status": "OPERATIONAL", "rating": 4.5, "types": "park; point_of_interest; establishment", "user_ratings_total": 2, "permanently_closed": null, "group": "Parks", "size": "1000", "cell_id": 163 }, "geometry": { "type": "Point", "coordinates": [ -71.0615738, 42.352347499999979 ] } },
{ "type": "Feature", "properties": { "place_id": "ChIJ6Vl1OuF744kRyn8eU3f-WC0", "file": "place of worship", "name": "Hyssop Christian Church", "business_status": "OPERATIONAL", "rating": 5.0, "types": "church; place_of_worship; point_of_interest; establishment", "user_ratings_total": 26, "permanently_closed": null, "group": "Places of Worship", "size": "1000", "cell_id": 79 }, "geometry": { "type": "Point", "coordinates": [ -71.0611834, 42.296328199999934 ] } },
{ "type": "Feature", "properties": { "place_id": "ChIJ6w6dMZ1w44kR_UV15er0TqU", "file": "bookstore", "name": "Brattle Book Shop", "business_status": "OPERATIONAL", "rating": 4.7, "types": "book_store; point_of_interest; store; establishment", "user_ratings_total": 718, "permanently_closed": null, "group": "Social Businesses", "size": "1000", "cell_id": 163 }, "geometry": { "type": "Point", "coordinates": [ -71.0619981, 42.354665200000021 ] } },
{ "type": "Feature", "properties": { "place_id": "ChIJ6YkmZG5544kRh3hj_qENlss", "file": "cafe", "name": "City Feed and Supply", "business_status": "OPERATIONAL", "rating": 4.4, "types": "grocery_or_supermarket; cafe; food; point_of_interest; store; establishment", "user_ratings_total": 502, "permanently_closed": null, "group": "Social Businesses", "size": "1000", "cell_id": 74 }, "geometry": { "type": "Point", "coordinates": [ -71.1140041, 42.312352099999977 ] } },
{ "type": "Feature", "properties": { "place_id": "ChIJ7_bOLRx844kRz0lPvFoFixU", "file": "cafe", "name": "Dunkin'", "business_status": "OPERATIONAL", "rating": 4.1, "types": "bakery; meal_takeaway; cafe; restaurant; food; point_of_interest; store; establishment", "user_ratings_total": 223, "permanently_closed": null, "group": "Social Businesses", "size": "1000", "cell_id": 36 }, "geometry": { "type": "Point", "coordinates": [ -71.0940606, 42.268547900000044 ] } },
{ "type": "Feature", "properties": { "place_id": "ChIJ7_hMqX5844kRKd9ndF-IsUk", "file": "park", "name": "Neponset River Reservation", "business_status": "OPERATIONAL", "rating": 4.5, "types": "park; tourist_attraction; point_of_interest; establishment", "user_ratings_total": 351, "permanently_closed": null, "group": "Parks", "size": "1000", "cell_id": 61 }, "geometry": { "type": "Point", "coordinates": [ -71.0521634, 42.2789212 ] } },
{ "type": "Feature", "properties": { "place_id": "ChIJ7-GJrK9644kRInm_7z6TAFc", "file": "park", "name": "Castle Island", "business_status": "OPERATIONAL", "rating": 4.7, "types": "tourist_attraction; park; point_of_interest; establishment", "user_ratings_total": 4145, "permanently_closed": null, "group": "Parks", "size": "1000", "cell_id": 149 }, "geometry": { "type": "Point", "coordinates": [ -71.012520599999988, 42.3378699 ] } },
{ "type": "Feature", "properties": { "place_id": "ChIJ70NXYP1544kRXnfSiB1r4as", "file": "park", "name": "Dana Square Park", "business_status": "OPERATIONAL", "rating": 4.8, "types": "park; point_of_interest; establishment", "user_ratings_total": 41, "permanently_closed": null, "group": "Parks", "size": "1000", "cell_id": 159 }, "geometry": { "type": "Point", "coordinates": [ -71.1078064, 42.3614101 ] } },
{ "type": "Feature", "properties": { "place_id": "ChIJ72uw0Bp644kRPwIo6MrcOfY", "file": "square", "name": "Newcomb Square", "business_status": "OPERATIONAL", "rating": 0.0, "types": "park; point_of_interest; establishment", "user_ratings_total": 0, "permanently_closed": null, "group": "Parks", "size": "1000", "cell_id": 143 }, "geometry": { "type": "Point", "coordinates": [ -71.08799040000001, 42.3473461 ] } },
{ "type": "Feature", "properties": { "place_id": "ChIJ754o0cl744kRxNI8vOe_a6g", "file": "park", "name": "Ceylon Park", "business_status": "OPERATIONAL", "rating": 4.0, "types": "tourist_attraction; park; point_of_interest; establishment", "user_ratings_total": 164, "permanently_closed": null, "group": "Parks", "size": "1000", "cell_id": 86 }, "geometry": { "type": "Point", "coordinates": [ -71.073919, 42.310139299999982 ] } },
{ "type": "Feature", "properties": { "place_id": "ChIJ78R_-aB544kRNLV-g2RgE1M", "file": "cafe", "name": "BESS'S CAFE", "business_status": "OPERATIONAL", "rating": 4.5, "types": "cafe; restaurant; food; point_of_interest; establishment", "user_ratings_total": 133, "permanently_closed": null, "group": "Social Businesses", "size": "1000", "cell_id": 93 }, "geometry": { "type": "Point", "coordinates": [ -71.1244239, 42.327521199999985 ] } },
{ "type": "Feature", "properties": { "place_id": "ChIJ78uiwpxw44kRwsrIkp-4NK8", "file": "fountain", "name": "Brewer Fountain", "business_status": "OPERATIONAL", "rating": 4.7, "types": "tourist_attraction; park; point_of_interest; establishment", "user_ratings_total": 67, "permanently_closed": null, "group": "Parks", "size": "1000", "cell_id": 163 }, "geometry": { "type": "Point", "coordinates": [ -71.0631027, 42.356193499999954 ] } },
{ "type": "Feature", "properties": { "place_id": "ChIJ795XH9px44kR0ar0v5k5R4o", "file": "park", "name": "Park Swings", "business_status": "OPERATIONAL", "rating": 5.0, "types": "park; point_of_interest; establishment", "user_ratings_total": 1, "permanently_closed": null, "group": "Parks", "size": "1000", "cell_id": 175 }, "geometry": { "type": "Point", "coordinates": [ -71.056197, 42.362607 ] } },
{ "type": "Feature", "properties": { "place_id": "ChIJ79B6NC5_44kRTiC6eXr8Ti0", "file": "cafe", "name": "Recreo Coffee & Roasterie", "business_status": "OPERATIONAL", "rating": 4.8, "types": "cafe; food; point_of_interest; store; establishment", "user_ratings_total": 170, "permanently_closed": null, "group": "Social Businesses", "size": "1000", "cell_id": 42 }, "geometry": { "type": "Point", "coordinates": [ -71.155392, 42.285786 ] } },
{ "type": "Feature", "properties": { "place_id": "ChIJ79j71rR544kRj8zBSQz7p64", "file": "library", "name": "Michael D. Papagiannis Astronomy Library", "business_status": "OPERATIONAL", "rating": 0.0, "types": "library; point_of_interest; establishment", "user_ratings_total": 0, "permanently_closed": null, "group": "Community Space", "size": "1000", "cell_id": 142 }, "geometry": { "type": "Point", "coordinates": [ -71.105441, 42.3502789 ] } },
{ "type": "Feature", "properties": { "place_id": "ChIJ7aCFlrR544kRVmHFN0u5X-Q", "file": "cafe", "name": "Brighton Cafe", "business_status": "OPERATIONAL", "rating": 4.4, "types": "cafe; food; point_of_interest; establishment", "user_ratings_total": 280, "permanently_closed": null, "group": "Social Businesses", "size": "1000", "cell_id": 121 }, "geometry": { "type": "Point", "coordinates": [ -71.143153100000021, 42.3440262 ] } },
{ "type": "Feature", "properties": { "place_id": "ChIJ7apo8eVx44kRevGb53eqrMk", "file": "city hall", "name": "Building Department", "business_status": "OPERATIONAL", "rating": 3.7, "types": "local_government_office; point_of_interest; establishment", "user_ratings_total": 3, "permanently_closed": null, "group": "Community Space", "size": "1000", "cell_id": 232 }, "geometry": { "type": "Point", "coordinates": [ -71.0133405, 42.4071906 ] } },
{ "type": "Feature", "properties": { "place_id": "ChIJ7bvkWpV744kRn8Fng4tGvtg", "file": "place of worship", "name": "Churches Pentecostal", "business_status": "OPERATIONAL", "rating": 0.0, "types": "church; place_of_worship; point_of_interest; establishment", "user_ratings_total": 0, "permanently_closed": null, "group": "Places of Worship", "size": "1000", "cell_id": 78 }, "geometry": { "type": "Point", "coordinates": [ -71.0727815, 42.297181900000027 ] } },
{ "type": "Feature", "properties": { "place_id": "ChIJ7e3Keol644kRuXZj6ph9mNs", "file": "square", "name": "Square Foot Management & Consltng", "business_status": "OPERATIONAL", "rating": 0.0, "types": "doctor; health; point_of_interest; establishment", "user_ratings_total": 0, "permanently_closed": null, "group": "Parks", "size": "1000", "cell_id": 147 }, "geometry": { "type": "Point", "coordinates": [ -71.0459735, 42.336501700000035 ] } },
{ "type": "Feature", "properties": { "place_id": "ChIJ7eB50fR544kRV2hF4JQ4-6E", "file": "park", "name": "Justine Mee Liff Park", "business_status": "OPERATIONAL", "rating": 5.0, "types": "tourist_attraction; park; point_of_interest; establishment", "user_ratings_total": 2, "permanently_closed": null, "group": "Parks", "size": "1000", "cell_id": 123 }, "geometry": { "type": "Point", "coordinates": [ -71.1033808, 42.343245499999988 ] } },
{ "type": "Feature", "properties": { "place_id": "ChIJ7elEI5Z744kRg_fyxD9E3ME", "file": "park", "name": "Wellesley Park", "business_status": "OPERATIONAL", "rating": 4.3, "types": "park; point_of_interest; establishment", "user_ratings_total": 23, "permanently_closed": null, "group": "Parks", "size": "1000", "cell_id": 78 }, "geometry": { "type": "Point", "coordinates": [ -71.065814100000011, 42.295949499999978 ] } },
{ "type": "Feature", "properties": { "place_id": "ChIJ7fQs0khu44kRfQWL1YCyCys", "file": "square", "name": "Fred Dinsfriend Square", "business_status": "OPERATIONAL", "rating": 4.5, "types": "point_of_interest; establishment", "user_ratings_total": 20, "permanently_closed": null, "group": "Parks", "size": "1000", "cell_id": 212 }, "geometry": { "type": "Point", "coordinates": [ -70.97063150000001, 42.374885599999985 ] } },
{ "type": "Feature", "properties": { "place_id": "ChIJ7RyvcTh544kRSh6zm8DMYwE", "file": "square", "name": "Frank J Piazza Square", "business_status": "OPERATIONAL", "rating": 0.0, "types": "museum; point_of_interest; establishment", "user_ratings_total": 0, "permanently_closed": null, "group": "Parks", "size": "1000", "cell_id": 55 }, "geometry": { "type": "Point", "coordinates": [ -71.1296953, 42.297513100000025 ] } },
{ "type": "Feature", "properties": { "place_id": "ChIJ7Vn76Nd744kRjf4vH5_s-80", "file": "park", "name": "Franklin Park Playstead", "business_status": "OPERATIONAL", "rating": 4.5, "types": "park; point_of_interest; establishment", "user_ratings_total": 42, "permanently_closed": null, "group": "Parks", "size": "1000", "cell_id": 76 }, "geometry": { "type": "Point", "coordinates": [ -71.0939745, 42.30761590000003 ] } },
{ "type": "Feature", "properties": { "place_id": "ChIJ7X3A2Odw44kRCN10_-mnr3M", "file": "square", "name": "Sullivan square community garden", "business_status": "OPERATIONAL", "rating": 4.5, "types": "park; point_of_interest; establishment", "user_ratings_total": 2, "permanently_closed": null, "group": "Parks", "size": "1000", "cell_id": 193 }, "geometry": { "type": "Point", "coordinates": [ -71.0716091, 42.383182299999987 ] } },
{ "type": "Feature", "properties": { "place_id": "ChIJ7YSIDml544kRwsLeqLJnOzI", "file": "park", "name": "Murphy Playground", "business_status": "OPERATIONAL", "rating": 4.4, "types": "park; point_of_interest; establishment", "user_ratings_total": 8, "permanently_closed": null, "group": "Parks", "size": "1000", "cell_id": 74 }, "geometry": { "type": "Point", "coordinates": [ -71.1143075, 42.307141700000031 ] } },
{ "type": "Feature", "properties": { "place_id": "ChIJ7ytGIOh544kRVJorxOgGdvY", "file": "place of worship", "name": "Symphony Church", "business_status": "OPERATIONAL", "rating": 5.0, "types": "church; place_of_worship; point_of_interest; establishment", "user_ratings_total": 11, "permanently_closed": null, "group": "Places of Worship", "size": "1000", "cell_id": 141 }, "geometry": { "type": "Point", "coordinates": [ -71.119682, 42.351866 ] } },
{ "type": "Feature", "properties": { "place_id": "ChIJ7YXQbUN544kRyZtl7yVe-IU", "file": "bookstore", "name": "Tree of Life Bookstore", "business_status": "OPERATIONAL", "rating": 5.0, "types": "book_store; point_of_interest; store; establishment", "user_ratings_total": 2, "permanently_closed": null, "group": "Social Businesses", "size": "1000", "cell_id": 140 }, "geometry": { "type": "Point", "coordinates": [ -71.1320885, 42.35408 ] } },
{ "type": "Feature", "properties": { "place_id": "ChIJ7z-UyZlw44kROTUsfV6NCTk", "file": "library", "name": "Abraham Pollen Archives and Rare Book Library", "business_status": "OPERATIONAL", "rating": 0.0, "types": "library; point_of_interest; establishment", "user_ratings_total": 0, "permanently_closed": null, "group": "Community Space", "size": "1000", "cell_id": 174 }, "geometry": { "type": "Point", "coordinates": [ -71.0701292, 42.362755699999958 ] } },
{ "type": "Feature", "properties": { "place_id": "ChIJ7zix5YB544kReC4NJulIRDs", "file": "community center", "name": "Anna M. Cole Community Center", "business_status": "OPERATIONAL", "rating": 4.5, "types": "point_of_interest; establishment", "user_ratings_total": 67, "permanently_closed": null, "group": "Community Space", "size": "1000", "cell_id": 95 }, "geometry": { "type": "Point", "coordinates": [ -71.099684600000018, 42.324527 ] } },
{ "type": "Feature", "properties": { "place_id": "ChIJ7ZXiVx1644kRc0GgVmpdHMo", "file": "square", "name": "Kenmore Square", "business_status": "OPERATIONAL", "rating": 4.4, "types": "tourist_attraction; point_of_interest; establishment", "user_ratings_total": 549, "permanently_closed": null, "group": "Parks", "size": "1000", "cell_id": 142 }, "geometry": { "type": "Point", "coordinates": [ -71.0974817, 42.348903200000031 ] } },
{ "type": "Feature", "properties": { "place_id": "ChIJ8_bNGcd744kRw-4aSZVE5Vg", "file": "park", "name": "William Miller Memorial Park", "business_status": "OPERATIONAL", "rating": 0.0, "types": "park; point_of_interest; establishment", "user_ratings_total": 0, "permanently_closed": null, "group": "Parks", "size": "1000", "cell_id": 147 }, "geometry": { "type": "Point", "coordinates": [ -71.035591400000015, 42.341288700000057 ] } },
{ "type": "Feature", "properties": { "place_id": "ChIJ8_TzP3J644kRl-ymkHWuffw", "file": "square", "name": "Castle Square", "business_status": "OPERATIONAL", "rating": 3.9, "types": "point_of_interest; establishment", "user_ratings_total": 11, "permanently_closed": null, "group": "Parks", "size": "1000", "cell_id": 145 }, "geometry": { "type": "Point", "coordinates": [ -71.0690664, 42.3459157 ] } },